Full_Address,Place_type,source_centroid,source_lon,source_lat
"100 North Tryon St, Charlotte, North Carolina 28202",FDIC_Insured_Banks,POINT (-72.8786479999999 41.601435),-72.878648,41.601435
"100 North Tryon St, Charlotte, North Carolina 28202",FDIC_Insured_Banks,POINT (-70.25666799999991 43.6574320000001),-70.256668,43.657432
"2 Elm Street, Camden, Maine 04843",FDIC_Insured_Banks,POINT (-68.4246209999999 44.5413260000001),-68.424621,44.541326
"1 Lincoln St. Fl 1, Boston, Massachusetts 02111",FDIC_Insured_Banks,POINT (-71.0579589999999 42.3528240000001),-71.057959,42.352824
"100 North Tryon St, Charlotte, North Carolina 28202",FDIC_Insured_Banks,POINT (-71.11891299999991 42.3738320000001),-71.118913,42.373832
"100 North Tryon St, Charlotte, North Carolina 28202",FDIC_Insured_Banks,POINT (-71.1553049999999 41.702031),-71.155305,41.702031
"824 North Market Street, Suite 100, Wilmington, Delaware 19801",FDIC_Insured_Banks,POINT (-70.6625819999999 42.6125690000001),-70.662582,42.612569
"2035 Limestone Road, Wilmington, Delaware 19808",FDIC_Insured_Banks,POINT (-72.60063699999991 42.587947),-72.600637,42.587947
"100 North Tryon St, Charlotte, North Carolina 28202",FDIC_Insured_Banks,POINT (-71.1388679999999 42.451648),-71.138868,42.451648
"62 Pleasant Street, Laconia, New Hampshire 03246",FDIC_Insured_Banks,POINT (-71.7762109999999 44.3074280000001),-71.776211,44.307428
"100 North Gay Street, Auburn, Alabama 36830",FDIC_Insured_Banks,POINT (-85.4798389999999 32.6067820000001),-85.479839,32.606782
"3251 Ross Clark Circle, Dothan, Alabama 36303",FDIC_Insured_Banks,POINT (-85.34964099999991 31.3411410000001),-85.349641,31.341141
"Sixth And Blount Streets, Altoona, Alabama 35952",FDIC_Insured_Banks,POINT (-86.0704529999999 34.0182130000001),-86.070453,34.018213
"216 North Walnut Avenue, Demopolis, Alabama 36732",FDIC_Insured_Banks,POINT (-87.8375189999999 32.5181600000001),-87.837519,32.51816
"801 13th Street, Phenix City, Alabama 36867",FDIC_Insured_Banks,POINT (-85.00407199999999 32.4707930000001),-85.004072,32.470793
"1900 Fifth Avenue North, Birmingham, Alabama 35203",FDIC_Insured_Banks,POINT (-86.5036249999999 34.3371200000001),-86.503625,34.33712
"341 Military Street South, Hamilton, Alabama 35570",FDIC_Insured_Banks,POINT (-87.60132299999989 33.659316),-87.601323,33.659316
"1900 Fifth Avenue North, Birmingham, Alabama 35203",FDIC_Insured_Banks,POINT (-86.0293579999999 34.6727220000001),-86.029358,34.672722
"900 Second Avenue, Sw, Cullman, Alabama 35055",FDIC_Insured_Banks,POINT (-86.8397049999999 34.1682270000001),-86.839705,34.168227
"819 20th St, Haleyville, Alabama 35565",FDIC_Insured_Banks,POINT (-87.6247189999999 34.226209),-87.624719,34.226209
"146 West Front Street, Evergreen, Alabama 36401",FDIC_Insured_Banks,POINT (-86.9556819999999 31.4332110000001),-86.955682,31.433211
"200 4th Avenue Sw, Red Bay, Alabama 35582",FDIC_Insured_Banks,POINT (-88.14529399999989 34.4417910000001),-88.145294,34.441791
"44825 Highway 17, Vernon, Alabama 35592",FDIC_Insured_Banks,POINT (-88.1086099999999 33.7605780000001),-88.10861,33.760578
"236 Bankhead Highway, Winfield, Alabama 35594",FDIC_Insured_Banks,POINT (-87.81443299999999 33.9299150000001),-87.814433,33.929915
"203 W Crawford Street, Colquitt, Georgia 39837",FDIC_Insured_Banks,POINT (-85.1109299999999 31.2927880000001),-85.11093,31.292788
"Sixth And Blount Streets, Altoona, Alabama 35952",FDIC_Insured_Banks,POINT (-86.3258289999999 34.0251840000001),-86.325829,34.025184
"1900 Fifth Avenue North, Birmingham, Alabama 35203",FDIC_Insured_Banks,POINT (-86.4841209999999 31.3080980000001),-86.484121,31.308098
"2100 Third Avenue North, Birmingham, Alabama 35203",FDIC_Insured_Banks,POINT (-86.5909119999999 34.0833170000001),-86.590912,34.083317
"200 East Nashville Avenue, Atmore, Alabama 36502",FDIC_Insured_Banks,POINT (-87.49246099999991 31.0239290000001),-87.492461,31.023929
"17901 Chenal Parkway, Little Rock, Arkansas 72223",FDIC_Insured_Banks,POINT (-85.8638539999999 31.0335930000001),-85.863854,31.033593
"248 East Capitol Street, Jackson, Mississippi 39201",FDIC_Insured_Banks,POINT (-87.07164399999991 31.1058410000001),-87.071644,31.105841
"101 N. Phillips Avenue, Sioux Falls, South Dakota 57104",FDIC_Insured_Banks,POINT (-86.32616399999991 31.0027570000001),-86.326164,31.002757
"341 Military Street South, Hamilton, Alabama 35570",FDIC_Insured_Banks,POINT (-87.28448899999999 33.7305830000001),-87.284489,33.730583
"117 Main Street, Wedowee, Alabama 36278",FDIC_Insured_Banks,POINT (-85.3686099999999 33.1508340000001),-85.36861,33.150834
"200 W 2nd St, Winston Salem, North Carolina 27101",FDIC_Insured_Banks,POINT (-86.2637289999999 31.7139710000001),-86.263729,31.713971
"2013 Highway 21 Bypass, Monroeville, Alabama 36460",FDIC_Insured_Banks,POINT (-87.31728199999991 31.5048120000001),-87.317282,31.504812
"11025 Hwy 25, Calera, Alabama 35040",FDIC_Insured_Banks,POINT (-86.7495789999999 33.1031490000001),-86.749579,33.103149
"1900 Fifth Avenue North, Birmingham, Alabama 35203",FDIC_Insured_Banks,POINT (-86.9712489999999 34.8012180000001),-86.971249,34.801218
"40956 Alabama Highway 75, Geraldine, Alabama 35974",FDIC_Insured_Banks,POINT (-85.87263299999999 34.2706390000001),-85.872633,34.270639
"3251 Ross Clark Circle, Dothan, Alabama 36303",FDIC_Insured_Banks,POINT (-85.43182399999991 31.236023),-85.431824,31.236023
"201 South Main Street, Warren, Arkansas 71671",FDIC_Insured_Banks,POINT (-92.0642489999999 33.6136710000001),-92.064249,33.613671
"200 West Congress Street, Lafayette, Louisiana 70501",FDIC_Insured_Banks,POINT (-90.4189889999999 35.5307980000001),-90.418989,35.530798
"One Mississippi Plaza, Tupelo, Mississippi 38804",FDIC_Insured_Banks,POINT (-93.5776139999999 33.357532),-93.577614,33.357532
"302 E Main, Hampton, Arkansas 71744",FDIC_Insured_Banks,POINT (-92.4660149999999 33.537851),-92.466015,33.537851
"3878 North Crossover Road, Suite 20, Fayetteville, Arkansas 72703",FDIC_Insured_Banks,POINT (-94.1191849999999 36.1208480000001),-94.119185,36.120848
"212 West Gaines Street, Monticello, Arkansas 71655",FDIC_Insured_Banks,POINT (-91.7922499999999 33.629148),-91.79225,33.629148
"432 Madison 1650, Huntsville, Arkansas 72740",FDIC_Insured_Banks,POINT (-94.0519849999999 35.4983720000001),-94.051985,35.498372
"501 Main Street, Pine Bluff, Arkansas 71611",FDIC_Insured_Banks,POINT (-91.5425399999999 33.1204240000001),-91.54254,33.120424
"Commerce And Main Streets, Sparkman, Arkansas 71763",FDIC_Insured_Banks,POINT (-92.8479489999999 33.916591),-92.847949,33.916591
"104 S Main Street, Warren, Arkansas 71671",FDIC_Insured_Banks,POINT (-92.06430499999991 33.6142610000001),-92.064305,33.614261
"1900 Fifth Avenue North, Birmingham, Alabama 35203",FDIC_Insured_Banks,POINT (-92.6634109999999 33.2140380000001),-92.663411,33.214038
"1900 Fifth Avenue North, Birmingham, Alabama 35203",FDIC_Insured_Banks,POINT (-90.7871589999999 35.0109120000001),-90.787159,35.010912
"1900 Fifth Avenue North, Birmingham, Alabama 35203",FDIC_Insured_Banks,POINT (-93.0530369999999 34.509011),-93.053037,34.509011
"503 E Antioch Street, Delight, Arkansas 71940",FDIC_Insured_Banks,POINT (-93.5017149999999 34.031303),-93.501715,34.031303
"75 North East Street, Fayetteville, Arkansas 72701",FDIC_Insured_Banks,POINT (-94.2081059999999 36.3731310000001),-94.208106,36.373131
"East 2nd And Main Streets, Prescott, Arkansas 71857",FDIC_Insured_Banks,POINT (-93.37967999999999 33.8013520000001),-93.37968,33.801352
"602 Garrison Avenue, Fort Smith, Arkansas 72901",FDIC_Insured_Banks,POINT (-94.1756109999999 35.3362780000001),-94.175611,35.336278
"One Mississippi Plaza, Tupelo, Mississippi 38804",FDIC_Insured_Banks,POINT (-94.2259099999999 35.4832650000001),-94.22591,35.483265
"137 S Main Street, Cave City, Arkansas 72521",FDIC_Insured_Banks,POINT (-94.2321049999999 36.2638880000001),-94.232105,36.263888
"297 Madison Street, Clarendon, Arkansas 72029",FDIC_Insured_Banks,POINT (-91.3120029999999 34.692774),-91.312003,34.692774
"901 Main Street, Danville, Arkansas 72833",FDIC_Insured_Banks,POINT (-94.13601199999989 36.1200940000001),-94.136012,36.120094
"Pride And Main, Horatio, Arkansas 71842",FDIC_Insured_Banks,POINT (-94.3572179999999 33.9384710000001),-94.357218,33.938471
"17901 Chenal Parkway, Little Rock, Arkansas 72223",FDIC_Insured_Banks,POINT (-92.4586169999999 34.7695640000001),-92.458617,34.769564
"425 Walnut Street, Cincinnati, Ohio 45202",FDIC_Insured_Banks,POINT (-118.442233 34.0592130000001),-118.442233,34.059213
"2035 Limestone Road, Wilmington, Delaware 19808",FDIC_Insured_Banks,POINT (-82.9864399999999 30.2925680000001),-82.98644,30.292568
"101 N. Phillips Avenue, Sioux Falls, South Dakota 57104",FDIC_Insured_Banks,POINT (-83.4167319999999 30.469478),-83.416732,30.469478
"101 N. Phillips Avenue, Sioux Falls, South Dakota 57104",FDIC_Insured_Banks,POINT (-81.4217099999999 30.3390210000001),-81.42171,30.339021
"815 Colorado Avenue, Stuart, Florida 34994",FDIC_Insured_Banks,POINT (-80.2529609999999 27.191715),-80.252961,27.191715
"303 Peachtreet Street, Northeast, Atlanta, Georgia 30308",FDIC_Insured_Banks,POINT (-82.45648199999989 27.9473040000001),-82.456482,27.947304
"1627 North Young Boulevard, Chiefland, Florida 32626",FDIC_Insured_Banks,POINT (-82.4438659999999 29.3879870000001),-82.443866,29.387987
"101 N. Phillips Avenue, Sioux Falls, South Dakota 57104",FDIC_Insured_Banks,POINT (-81.0235679999999 29.2120360000001),-81.023568,29.212036
"101 N. Phillips Avenue, Sioux Falls, South Dakota 57104",FDIC_Insured_Banks,POINT (-83.58330099999991 30.117958),-83.583301,30.117958
"101 N. Phillips Avenue, Sioux Falls, South Dakota 57104",FDIC_Insured_Banks,POINT (-86.5700539999999 30.76032),-86.570054,30.76032
"101 N. Phillips Avenue, Sioux Falls, South Dakota 57104",FDIC_Insured_Banks,POINT (-81.6262609999999 28.1066630000001),-81.626261,28.106663
"303 Peachtreet Street, Northeast, Atlanta, Georgia 30308",FDIC_Insured_Banks,POINT (-82.4402809999999 27.9602540000001),-82.440281,27.960254
"101 N. Phillips Avenue, Sioux Falls, South Dakota 57104",FDIC_Insured_Banks,POINT (-82.57113099999989 27.4971790000001),-82.571131,27.497179
"100 North Tryon St, Charlotte, North Carolina 28202",FDIC_Insured_Banks,POINT (-87.2173359999999 30.412738),-87.217336,30.412738
"303 Peachtreet Street, Northeast, Atlanta, Georgia 30308",FDIC_Insured_Banks,POINT (-84.2478719999999 30.5096920000001),-84.247872,30.509692
"141 South Wayne Street, Milledgeville, Georgia 31061",FDIC_Insured_Banks,POINT (-83.22681299999989 33.0800630000001),-83.226813,33.080063
"133 North Main Street, Madison, Georgia 30650",FDIC_Insured_Banks,POINT (-83.4670829999999 33.5966020000001),-83.467083,33.596602
"22 South Tallahassee Street, Hazlehurst, Georgia 31539",FDIC_Insured_Banks,POINT (-82.5992819999999 31.8653820000001),-82.599282,31.865382
"1900 Fifth Avenue North, Birmingham, Alabama 35203",FDIC_Insured_Banks,POINT (-84.3815009999999 34.340245),-84.381501,34.340245
"245 Ne Railroad St., Alapaha, Georgia 31622",FDIC_Insured_Banks,POINT (-83.22336199999999 31.3815510000001),-83.223362,31.381551
"685 Griffin Street, Zebulon, Georgia 30295",FDIC_Insured_Banks,POINT (-83.9383799999999 33.0341720000001),-83.93838,33.034172
"4 N Carter St, Lakeland, Georgia 31635",FDIC_Insured_Banks,POINT (-83.2511869999999 31.2064440000001),-83.251187,31.206444
"201 First Street S. E., Moultrie, Georgia 31768",FDIC_Insured_Banks,POINT (-83.8353789999999 31.5294690000001),-83.835379,31.529469
"250 West Hancock Street, Milledgeville, Georgia 31061",FDIC_Insured_Banks,POINT (-83.2297659999999 33.0806930000001),-83.229766,33.080693
"177 Highway 515 East, Blairsville, Georgia 30512",FDIC_Insured_Banks,POINT (-84.5839269999999 33.5662580000001),-84.583927,33.566258
"685 Griffin Street, Zebulon, Georgia 30295",FDIC_Insured_Banks,POINT (-84.3262349999999 32.8896900000001),-84.326235,32.88969
"1900 Fifth Avenue North, Birmingham, Alabama 35203",FDIC_Insured_Banks,POINT (-82.7381519999999 33.736788),-82.738152,33.736788
"100 North Tryon St, Charlotte, North Carolina 28202",FDIC_Insured_Banks,POINT (-83.8235479999999 34.3014360000001),-83.823548,34.301436
"1900 Fifth Avenue North, Birmingham, Alabama 35203",FDIC_Insured_Banks,POINT (-83.4772489999999 33.5727760000001),-83.477249,33.572776
"318 South Hill Street, Griffin, Georgia 30224",FDIC_Insured_Banks,POINT (-84.2638789999999 33.2450890000001),-84.263879,33.245089
"26 West Monroe Street, Talbotton, Georgia 31827",FDIC_Insured_Banks,POINT (-84.5405809999999 32.6776380000001),-84.540581,32.677638
"200 W 2nd St, Winston Salem, North Carolina 27101",FDIC_Insured_Banks,POINT (-84.79012899999989 34.1666970000001),-84.790129,34.166697
"685 Griffin Street, Zebulon, Georgia 30295",FDIC_Insured_Banks,POINT (-84.3421499999999 33.1074370000001),-84.34215,33.107437
"884 Elbert Street, Elberton, Georgia 30635",FDIC_Insured_Banks,POINT (-83.84343200000001 33.6022170000001),-83.843432,33.602217
"102 N. Church Street, Crawford, Georgia 30630",FDIC_Insured_Banks,POINT (-83.1581059999999 33.8842060000001),-83.158106,33.884206
"200 W 2nd St, Winston Salem, North Carolina 27101",FDIC_Insured_Banks,POINT (-83.8855149999999 32.5553850000001),-83.885515,32.555385
"76 E. Main Street, Woodland, Georgia 31836",FDIC_Insured_Banks,POINT (-84.5591079999999 32.7880960000001),-84.559108,32.788096
"101 N. Phillips Avenue, Sioux Falls, South Dakota 57104",FDIC_Insured_Banks,POINT (-84.3630499999999 34.023058),-84.36305,34.023058
"303 Peachtreet Street, Northeast, Atlanta, Georgia 30308",FDIC_Insured_Banks,POINT (-85.0452709999999 33.996538),-85.045271,33.996538
"6 College Street, Mcrae, Georgia 31055",FDIC_Insured_Banks,POINT (-82.9006849999999 32.0666880000001),-82.900685,32.066688
"1900 Fifth Avenue North, Birmingham, Alabama 35203",FDIC_Insured_Banks,POINT (-84.93214999999989 33.7318670000001),-84.93215,33.731867
"1900 Fifth Avenue North, Birmingham, Alabama 35203",FDIC_Insured_Banks,POINT (-85.09841899999989 33.2794600000001),-85.098419,33.27946
"1900 Fifth Avenue North, Birmingham, Alabama 35203",FDIC_Insured_Banks,POINT (-82.8657199999999 34.109336),-82.86572,34.109336
"1111 Bay Avenue, Columbus, Georgia 31901",FDIC_Insured_Banks,POINT (-83.9785099999999 30.8380210000001),-83.97851,30.838021
"217 North Monroe Street, Tallahassee, Florida 32301",FDIC_Insured_Banks,POINT (-85.18357399999989 32.8793470000001),-85.183574,32.879347
"300 South Main Street, Hinesville, Georgia 31313",FDIC_Insured_Banks,POINT (-81.59662999999991 31.8457450000001),-81.59663,31.845745
"113 East Broad Street, Louisville, Georgia 30434",FDIC_Insured_Banks,POINT (-82.4046499999999 32.8652760000001),-82.40465,32.865276
"123 North Jefferson Street, Converse, Indiana 46919",FDIC_Insured_Banks,POINT (-85.6507269999999 40.4154990000001),-85.650727,40.415499
"101 West Montgomery Street, Francesville, Indiana 47946",FDIC_Insured_Banks,POINT (-86.88224099999989 40.9852180000001),-86.882241,40.985218
"200 East Jackson Street, Muncie, Indiana 47305",FDIC_Insured_Banks,POINT (-85.53692100000001 40.0625170000001),-85.536921,40.062517
"127 Public Square, Cleveland, Ohio 44114",FDIC_Insured_Banks,POINT (-86.4286169999999 39.4260810000001),-86.428617,39.426081
"18 East Washington Street, Roachdale, Indiana 46172",FDIC_Insured_Banks,POINT (-86.8015519999999 39.852017),-86.801552,39.852017
"202 East Center Street, Warsaw, Indiana 46581",FDIC_Insured_Banks,POINT (-85.58761799999991 41.4639490000001),-85.587618,41.463949
"1620 Dodge Street, Omaha, Nebraska 68197",FDIC_Insured_Banks,POINT (-95.7447479999999 41.0458090000001),-95.744748,41.045809
"210 South Main, Elkader, Iowa 52043",FDIC_Insured_Banks,POINT (-91.56934099999989 43.0845770000001),-91.569341,43.084577
"121 S Marion Ave, Washington, Iowa 52353",FDIC_Insured_Banks,POINT (-91.69305799999999 41.298662),-91.693058,41.298662
"1307 East 7th Street, Atlantic, Iowa 50022",FDIC_Insured_Banks,POINT (-94.2012919999999 41.9345480000001),-94.201292,41.934548
"1341 Pilot Grove Rd, Pilot Grove, Iowa 52648",FDIC_Insured_Banks,POINT (-91.31352799999991 40.631241),-91.313528,40.631241
"3535 23rd Avenue, Moline, Illinois 61265",FDIC_Insured_Banks,POINT (-90.7214179999999 41.4561400000001),-90.721418,41.45614
"110 W South St, Spicer, Minnesota 56288",FDIC_Insured_Banks,POINT (-95.8680961299999 42.3882524400001),-95.86809613,42.38825244
"102 North Main Street, Elkader, Iowa 52043",FDIC_Insured_Banks,POINT (-91.18097632999989 43.01761715),-91.18097633,43.01761715
"1202 2nd Street, Perry, Iowa 50220",FDIC_Insured_Banks,POINT (-94.0207319999999 41.6182240000001),-94.020732,41.618224
"1001 Main St, Manson, Iowa 50563",FDIC_Insured_Banks,POINT (-94.53422499999991 42.5294280000001),-94.534225,42.529428
"100 South Main, Crawfordsville, Iowa 52621",FDIC_Insured_Banks,POINT (-91.5387249999999 41.2138600000001),-91.538725,41.21386
"505 East Main Street, Panora, Iowa 50216",FDIC_Insured_Banks,POINT (-94.3581219999999 41.6917780000001),-94.358122,41.691778
"1230 Valley Drive, Rock Valley, Iowa 51247",FDIC_Insured_Banks,POINT (-96.4852889999999 42.9946),-96.485289,42.9946
"525 North Main Street, Sioux Center, Iowa 51250",FDIC_Insured_Banks,POINT (-96.17569999999991 43.082879),-96.1757,43.082879
"101 N. Phillips Avenue, Sioux Falls, South Dakota 57104",FDIC_Insured_Banks,POINT (-94.37634199999989 42.0162780000001),-94.376342,42.016278
"1812 Highway Boulevard, Spencer, Iowa 51301",FDIC_Insured_Banks,POINT (-95.14736599999991 43.1571400000001),-95.147366,43.15714
"627 North Adams Street, Carroll, Iowa 51401",FDIC_Insured_Banks,POINT (-94.86836199999991 42.0668360000001),-94.868362,42.066836
"126 South Market Street, Solon, Iowa 52333",FDIC_Insured_Banks,POINT (-91.49294499999991 41.8065210000001),-91.492945,41.806521
"233 North Main Street, Pocahontas, Iowa 50574",FDIC_Insured_Banks,POINT (-94.66892899999991 42.7352200000001),-94.668929,42.73522
"109 West 2nd Street, Sutherland, Iowa 51058",FDIC_Insured_Banks,POINT (-95.49771199999989 42.973843),-95.497712,42.973843
"601 Pierce Street, Sioux City, Iowa 51102",FDIC_Insured_Banks,POINT (-95.7932789999999 42.1694390000001),-95.793279,42.169439
"101 N. Phillips Avenue, Sioux Falls, South Dakota 57104",FDIC_Insured_Banks,POINT (-95.0129849999999 41.4047600000001),-95.012985,41.40476
"401 First Street, Westside, Iowa 51467",FDIC_Insured_Banks,POINT (-94.8695699999999 42.060685),-94.86957,42.060685
"103 S Main St, Templeton, Iowa 51463",FDIC_Insured_Banks,POINT (-95.0651679999999 41.9093310000001),-95.065168,41.909331
"235 Sixth Avenue, South, Clinton, Iowa 52732",FDIC_Insured_Banks,POINT (-90.39408999999991 42.0525240000001),-90.39409,42.052524
"817 North Ankeny Boulevard, Ankeny, Iowa 50023",FDIC_Insured_Banks,POINT (-93.46296199999991 41.6440230000001),-93.462962,41.644023
"370 Main Street, Lansing, Iowa 52151",FDIC_Insured_Banks,POINT (-91.8082289999999 42.963129),-91.808229,42.963129
"1202 2nd Street, Perry, Iowa 50220",FDIC_Insured_Banks,POINT (-94.1051749999999 41.83977),-94.105175,41.83977
"101 N. Phillips Avenue, Sioux Falls, South Dakota 57104",FDIC_Insured_Banks,POINT (-91.6072939999999 42.0332070000001),-91.607294,42.033207
"4800 George Mills Civic Parkway, Suite 100, West Des Moines, Iowa 50265",FDIC_Insured_Banks,POINT (-93.76897099999989 41.5591030000001),-93.768971,41.559103
"121 S Marion Ave, Washington, Iowa 52353",FDIC_Insured_Banks,POINT (-91.3605739999999 41.2807470000001),-91.360574,41.280747
"401 Main Street, Mapleton, Iowa 51034",FDIC_Insured_Banks,POINT (-95.79296099999991 42.1659270000001),-95.792961,42.165927
"2206 South Center Street, Marshalltown, Iowa 50158",FDIC_Insured_Banks,POINT (-92.9123949999999 42.0193820000001),-92.912395,42.019382
"100 Harvest Drive, Luana, Iowa 52156",FDIC_Insured_Banks,POINT (-91.4456509999999 43.0529330000001),-91.445651,43.052933
"223 Chestnut Street, Atlantic, Iowa 50022",FDIC_Insured_Banks,POINT (-95.01298800000001 41.4082710000001),-95.012988,41.408271
"201 West Main Street, Waukon, Iowa 52172",FDIC_Insured_Banks,POINT (-91.47899199999991 43.2693070000001),-91.478992,43.269307
"260 Main Street, Melvin, Iowa 51350",FDIC_Insured_Banks,POINT (-95.60846099999991 43.287224),-95.608461,43.287224
"1040 East Main Street, Louisville, Kentucky 40206",FDIC_Insured_Banks,POINT (-85.73144499999999 38.2538830000001),-85.731445,38.253883
"411 New Brodhead Road, Mount Vernon, Kentucky 40456",FDIC_Insured_Banks,POINT (-84.34938099999989 37.3509010000001),-84.349381,37.350901
"304 West Main Street, Danville, Kentucky 40422",FDIC_Insured_Banks,POINT (-84.84332499999989 37.762006),-84.843325,37.762006
"456 Commonwealth Avenue, Erlanger, Kentucky 41018",FDIC_Insured_Banks,POINT (-84.5968559999999 38.8451350000001),-84.596856,38.845135
"200 W 2nd St, Winston Salem, North Carolina 27101",FDIC_Insured_Banks,POINT (-87.2582289999999 37.5363530000001),-87.258229,37.536353
"101 East Pike Street, Cynthiana, Kentucky 41031",FDIC_Insured_Banks,POINT (-84.2974429999999 38.389053),-84.297443,38.389053
"2500 Broadway, Catlettsburg, Kentucky 41129",FDIC_Insured_Banks,POINT (-82.59853199999991 38.4176670000001),-82.598532,38.417667
"200 W 2nd St, Winston Salem, North Carolina 27101",FDIC_Insured_Banks,POINT (-86.8879339999999 36.8451920000001),-86.887934,36.845192
"346 North Mayo Trail, Pikeville, Kentucky 41501",FDIC_Insured_Banks,POINT (-83.7137969999999 36.6073180000001),-83.713797,36.607318
"201 N Main Street, Morgantown, Kentucky 42261",FDIC_Insured_Banks,POINT (-86.6830249999999 37.2261670000001),-86.683025,37.226167
"201 N. Third Street, Bardstown, Kentucky 40004",FDIC_Insured_Banks,POINT (-85.59349899999999 37.6582310000001),-85.593499,37.658231
"2001 Pleasant Ridge Drive, Lexington, Kentucky 40505",FDIC_Insured_Banks,POINT (-82.82652999999991 37.1182250000001),-82.82653,37.118225
"22023 Main Street, Hyden, Kentucky 41749",FDIC_Insured_Banks,POINT (-83.37416399999999 37.1621730000001),-83.374164,37.162173
"222 Delaware Avenue, Wilmington, Delaware 19899",FDIC_Insured_Banks,POINT (-84.77411599999991 37.6452540000001),-84.774116,37.645254
"218 W. Main Street, Auburn, Kentucky 42206",FDIC_Insured_Banks,POINT (-86.7114009999999 36.8628070000001),-86.711401,36.862807
"2500 Eastpoint Parkway, Louisville, Kentucky 40223",FDIC_Insured_Banks,POINT (-85.9273169999999 37.0025560000001),-85.927317,37.002556
"1900 Fifth Avenue North, Birmingham, Alabama 35203",FDIC_Insured_Banks,POINT (-86.5783009999999 36.722113),-86.578301,36.722113
"221 West Fifth Street, Benton, Kentucky 42025",FDIC_Insured_Banks,POINT (-88.3593709999999 36.8667540000001),-88.359371,36.866754
"215 Mountain Parkway Spur, Campton, Kentucky 41301",FDIC_Insured_Banks,POINT (-83.5552269999999 37.7335320000001),-83.555227,37.733532
"1362 Hindman Bypass, Hindman, Kentucky 41822",FDIC_Insured_Banks,POINT (-82.8811509999999 37.4514770000001),-82.881151,37.451477
"123 Main Street N, Mc Kee, Kentucky 40447",FDIC_Insured_Banks,POINT (-84.0013339999999 37.430326),-84.001334,37.430326
"50 North Main, Monticello, Kentucky 42633",FDIC_Insured_Banks,POINT (-84.8488049999999 36.8298230000001),-84.848805,36.829823
"346 North Mayo Trail, Pikeville, Kentucky 41501",FDIC_Insured_Banks,POINT (-84.08827699999991 37.1083760000001),-84.088277,37.108376
"346 North Mayo Trail, Pikeville, Kentucky 41501",FDIC_Insured_Banks,POINT (-84.73032599999991 38.0532250000001),-84.730326,38.053225
"109 N Main Street, Brownsville, Kentucky 42210",FDIC_Insured_Banks,POINT (-86.2652269999999 37.1909360000001),-86.265227,37.190936
"287 North Main St, Lewisburg, Kentucky 42256",FDIC_Insured_Banks,POINT (-86.9554559999999 36.9882240000001),-86.955456,36.988224
"Fourth And Main Streets, Paris, Kentucky 40361",FDIC_Insured_Banks,POINT (-84.24997399999999 38.212182),-84.249974,38.212182
"47 South Main Street, Whitley City, Kentucky 42653",FDIC_Insured_Banks,POINT (-84.83610299999989 38.535578),-84.836103,38.535578
"220 East Clay Street, Clinton, Kentucky 42031",FDIC_Insured_Banks,POINT (-88.99287799999991 36.6670290000001),-88.992878,36.667029
"830 South Main Street, Hartford, Kentucky 42347",FDIC_Insured_Banks,POINT (-86.7167959999999 37.635609),-86.716796,37.635609
"4743 Main Street, Zachary, Louisiana 70791",FDIC_Insured_Banks,POINT (-91.1543429999999 30.6482760000001),-91.154343,30.648276
"12225 St. Helena Street, Clinton, Louisiana 70722",FDIC_Insured_Banks,POINT (-91.0186129999999 30.865684),-91.018613,30.865684
"1900 Fifth Avenue North, Birmingham, Alabama 35203",FDIC_Insured_Banks,POINT (-90.9206099999999 30.225891),-90.92061,30.225891
"7244 Perkins Road, Baton Rouge, Louisiana 70808",FDIC_Insured_Banks,POINT (-91.2165169999999 30.8362710000001),-91.216517,30.836271
"500 Laurel Street, Baton Rouge, Louisiana 70801",FDIC_Insured_Banks,POINT (-91.0558639999999 30.412853),-91.055864,30.412853
"102 Davenport Avenue, Mer Rouge, Louisiana 71261",FDIC_Insured_Banks,POINT (-91.7928099999999 32.7756570000001),-91.79281,32.775657
"1 Hancock Plaza, Gulfport, Mississippi 39501",FDIC_Insured_Banks,POINT (-90.1551289999999 30.8449360000001),-90.155129,30.844936
"209 Troy Street, Tupelo, Mississippi 38801",FDIC_Insured_Banks,POINT (-89.8528409999999 33.0751690000001),-89.852841,33.075169
"316 Court Square, Lexington, Mississippi 39095",FDIC_Insured_Banks,POINT (-90.0521869999999 33.1129080000001),-90.052187,33.112908
"521 Main Street, Philadelphia, Mississippi 39350",FDIC_Insured_Banks,POINT (-89.3410039999999 32.5681910000001),-89.341004,32.568191
"202 Jackson Street, Belzoni, Mississippi 39038",FDIC_Insured_Banks,POINT (-90.21895599999991 33.1801600000001),-90.218956,33.18016
"814 Main Street, Columbia, Mississippi 39429",FDIC_Insured_Banks,POINT (-89.8352559999999 31.25343),-89.835256,31.25343
"1900 Fifth Avenue North, Birmingham, Alabama 35203",FDIC_Insured_Banks,POINT (-89.51910599999989 34.3660340000001),-89.519106,34.366034
"308 Raymond Square, Raymond, Mississippi 39154",FDIC_Insured_Banks,POINT (-90.4228589999999 32.2598540000001),-90.422859,32.259854
"601 Main Street, Arkadelphia, Arkansas 71923",FDIC_Insured_Banks,POINT (-90.55205099999991 33.7261790000001),-90.552051,33.726179
"1900 Fifth Avenue North, Birmingham, Alabama 35203",FDIC_Insured_Banks,POINT (-88.70590899999991 34.2574190000001),-88.705909,34.257419
"295 Highway 6 West, Batesville, Mississippi 38606",FDIC_Insured_Banks,POINT (-90.1951709999999 34.50667),-90.195171,34.50667
"Lameuse And Howard Avenues, Biloxi, Mississippi 39533",FDIC_Insured_Banks,POINT (-88.88714322999989 30.3963137000001),-88.88714323,30.3963137
"111 3rd Avenue South, Wolf Point, Montana 59201",FDIC_Insured_Banks,POINT (-105.640827 48.090155),-105.640827,48.090155
"103 Main Street, Victor, Montana 59875",FDIC_Insured_Banks,POINT (-114.14629 46.4180620000001),-114.14629,46.418062
"101 N. Phillips Avenue, Sioux Falls, South Dakota 57104",FDIC_Insured_Banks,POINT (-111.856032 48.5052260000001),-111.856032,48.505226
"101 South Main Street, Bridger, Montana 59014",FDIC_Insured_Banks,POINT (-108.75989992 48.4848655200001),-108.75989992,48.48486552
"101 N. Phillips Avenue, Sioux Falls, South Dakota 57104",FDIC_Insured_Banks,POINT (-106.63947 48.1949030000001),-106.63947,48.194903
"540 Second Avenue South, Glasgow, Montana 59230",FDIC_Insured_Banks,POINT (-104.517376 48.145515),-104.517376,48.145515
"700 Main Street, Miles City, Montana 59301",FDIC_Insured_Banks,POINT (-111.947582 48.1679970000001),-111.947582,48.167997
"116 S Main Street, Baker, Montana 59313",FDIC_Insured_Banks,POINT (-104.275352 46.3673200000001),-104.275352,46.36732
"101 N. Phillips Avenue, Sioux Falls, South Dakota 57104",FDIC_Insured_Banks,POINT (-109.427988 47.065205),-109.427988,47.065205
"2615 King Avenue West, Billings, Montana 59102",FDIC_Insured_Banks,POINT (-112.09563 45.8694270000001),-112.09563,45.869427
"3113 South 25th East, Ammon, Idaho 83406",FDIC_Insured_Banks,POINT (-112.637771 45.2160160000001),-112.637771,45.216016
"117 Central Avenue, Cascade, Montana 59421",FDIC_Insured_Banks,POINT (-111.701965 47.271127),-111.701965,47.271127
"2615 King Avenue West, Billings, Montana 59102",FDIC_Insured_Banks,POINT (-114.093374 46.5102090000001),-114.093374,46.510209
"101 N. Phillips Avenue, Sioux Falls, South Dakota 57104",FDIC_Insured_Banks,POINT (-108.541891 46.441199),-108.541891,46.441199
"401 North 31st Street, Billings, Montana 59101",FDIC_Insured_Banks,POINT (-114.16336135 47.6944088700001),-114.16336135,47.69440887
"201 North Higgins Avenue, Missoula, Montana 59802",FDIC_Insured_Banks,POINT (-113.994481 46.8714980000001),-113.994481,46.871498
"49 Commons Loop, Kalispell, Montana 59901",FDIC_Insured_Banks,POINT (-111.982212 47.6146110000001),-111.982212,47.614611
"200 W 2nd St, Winston Salem, North Carolina 27101",FDIC_Insured_Banks,POINT (-79.2240079999999 34.97722),-79.224008,34.97722
"239 Fayetteville Street, Raleigh, North Carolina 27601",FDIC_Insured_Banks,POINT (-76.59271099999999 36.5188560000001),-76.592711,36.518856
"303 Peachtreet Street, Northeast, Atlanta, Georgia 30308",FDIC_Insured_Banks,POINT (-79.1770579999999 35.7215380000001),-79.177058,35.721538
"239 Fayetteville Street, Raleigh, North Carolina 27601",FDIC_Insured_Banks,POINT (-77.4031889999999 35.5290580000001),-77.403189,35.529058
"420 Third Avenue, Gallipolis, Ohio 45631",FDIC_Insured_Banks,POINT (-82.2051779999999 38.809535),-82.205178,38.809535
"222 Delaware Avenue, Wilmington, Delaware 19899",FDIC_Insured_Banks,POINT (-81.8705359999999 40.67688),-81.870536,40.67688
"103 East Wiggin Street, Gambier, Ohio 43022",FDIC_Insured_Banks,POINT (-82.3962099999999 40.3758980000001),-82.39621,40.375898
"One Bank Plaza, Wheeling, West Virginia 26003",FDIC_Insured_Banks,POINT (-81.26652799999989 40.2101840000001),-81.266528,40.210184
"105 Grant Street, Dennison, Ohio 44621",FDIC_Insured_Banks,POINT (-81.4359899999999 40.3591720000001),-81.43599,40.359172
"86 North Kennebec Avenue, Mcconnelsville, Ohio 43756",FDIC_Insured_Banks,POINT (-82.2323669999999 39.460265),-82.232367,39.460265
"6th And Washington, Ryan, Oklahoma 73565",FDIC_Insured_Banks,POINT (-97.9573179999999 34.020583),-97.957318,34.020583
"101 North Broadway, Suite 200, Oklahoma City, Oklahoma 73102",FDIC_Insured_Banks,POINT (-97.28302600000001 36.8045510000001),-97.283026,36.804551
"2 Southeast Fourth, Tuttle, Oklahoma 73089",FDIC_Insured_Banks,POINT (-97.8079079999999 35.29042),-97.807908,35.29042
"1101 West Main Street, Quinton, Oklahoma 74561",FDIC_Insured_Banks,POINT (-95.36894699999991 35.1230140000001),-95.368947,35.123014
"101 North Broadway, Suite 200, Oklahoma City, Oklahoma 73102",FDIC_Insured_Banks,POINT (-98.3955009999999 34.605217),-98.395501,34.605217
"202 South Square, Cleo Springs, Oklahoma 73729",FDIC_Insured_Banks,POINT (-98.4425369999999 36.4067620000001),-98.442537,36.406762
"101 North Broadway, Suite 200, Oklahoma City, Oklahoma 73102",FDIC_Insured_Banks,POINT (-94.97112899999991 35.9130400000001),-94.971129,35.91304
"1400 West Main Street, Durant, Oklahoma 74701",FDIC_Insured_Banks,POINT (-96.14461799999989 34.0166590000001),-96.144618,34.016659
"101 North Main Street, Coalgate, Oklahoma 74538",FDIC_Insured_Banks,POINT (-95.3525549999999 34.5895770000001),-95.352555,34.589577
"4921 North May Avenue, Oklahoma City, Oklahoma 73112",FDIC_Insured_Banks,POINT (-97.8989379999999 36.1093000000001),-97.898938,36.1093
"1117 Tenth Street, Woodward, Oklahoma 73801",FDIC_Insured_Banks,POINT (-99.3919359999999 36.4351600000001),-99.391936,36.43516
"17100 North May Ave, Edmond, Oklahoma 73012",FDIC_Insured_Banks,POINT (-97.9325969999999 35.8548610000001),-97.932597,35.854861
"101 North Broadway, Suite 200, Oklahoma City, Oklahoma 73102",FDIC_Insured_Banks,POINT (-95.0262059999999 36.5246100000001),-95.026206,36.52461
"301 South Polk Avenue, Keyes, Oklahoma 73947",FDIC_Insured_Banks,POINT (-102.252589 36.809599),-102.252589,36.809599
"402 West Broadway, Okemah, Oklahoma 74859",FDIC_Insured_Banks,POINT (-96.3048789999999 35.431561),-96.304879,35.431561
"121 West Broadway Street, Vici, Oklahoma 73859",FDIC_Insured_Banks,POINT (-99.34666299999989 35.8690450000001),-99.346663,35.869045
"402 Broadway, Cheyenne, Oklahoma 73628",FDIC_Insured_Banks,POINT (-99.6718769999999 35.613364),-99.671877,35.613364
"24 West Division Street, Stilwell, Oklahoma 74960",FDIC_Insured_Banks,POINT (-94.6263629999999 35.8142140000001),-94.626363,35.814214
"300 West Patti Page Boulevard, Claremore, Oklahoma 74017",FDIC_Insured_Banks,POINT (-96.5861389999999 36.0853940000001),-96.586139,36.085394
"300 West Patti Page Boulevard, Claremore, Oklahoma 74017",FDIC_Insured_Banks,POINT (-95.8378269999999 36.3652990000001),-95.837827,36.365299
"510-512 West Main Street, Henryetta, Oklahoma 74437",FDIC_Insured_Banks,POINT (-95.9872509999999 35.4398380000001),-95.987251,35.439838
"800 West Ozark Street, Morris, Oklahoma 74445",FDIC_Insured_Banks,POINT (-95.86429699999989 35.607671),-95.864297,35.607671
"1101 West Main Street, Quinton, Oklahoma 74561",FDIC_Insured_Banks,POINT (-95.0770969999999 34.948673),-95.077097,34.948673
"100 South Broadway, Hugo, Oklahoma 74743",FDIC_Insured_Banks,POINT (-95.51295399999989 34.0095220000001),-95.512954,34.009522
"923-925 Main Street, Duncan, Oklahoma 73533",FDIC_Insured_Banks,POINT (-97.4869519999999 34.2329710000001),-97.486952,34.232971
"200 W 2nd St, Winston Salem, North Carolina 27101",FDIC_Insured_Banks,POINT (-75.9792659999999 39.7842690000001),-75.979266,39.784269
"200 W 2nd St, Winston Salem, North Carolina 27101",FDIC_Insured_Banks,POINT (-75.59307699999989 40.7574400000001),-75.593077,40.75744
"166 Main Street, Greenville, Pennsylvania 16125",FDIC_Insured_Banks,POINT (-76.8620259999999 40.79931),-76.862026,40.79931
"150 North Washington Avenue, Scranton, Pennsylvania 18503",FDIC_Insured_Banks,POINT (-75.6479969999999 41.433204),-75.647997,41.433204
"42621 Route 6 East, Wyalusing, Pennsylvania 18853",FDIC_Insured_Banks,POINT (-76.2571579999999 41.664021),-76.257158,41.664021
"3279 South Main Street, Sandy Lake, Pennsylvania 16145",FDIC_Insured_Banks,POINT (-80.0820779999999 41.3501690000001),-80.082078,41.350169
"101 N. Phillips Avenue, Sioux Falls, South Dakota 57104",FDIC_Insured_Banks,POINT (-75.3407569999999 40.5789800000001),-75.340757,40.57898
"200 W 2nd St, Winston Salem, North Carolina 27101",FDIC_Insured_Banks,POINT (-76.60446399999999 40.149208),-76.604464,40.149208
"220 Main Street, Hoven, South Dakota 57450",FDIC_Insured_Banks,POINT (-98.4746979999999 45.4599000000001),-98.474698,45.4599
"7 East Highway 12, Groton, South Dakota 57445",FDIC_Insured_Banks,POINT (-98.10238199999991 45.4577070000001),-98.102382,45.457707
"1600 Main Street, Tyndall, South Dakota 57066",FDIC_Insured_Banks,POINT (-97.8626749999999 42.9913510000001),-97.862675,42.991351
"401 North 31st Street, Billings, Montana 59101",FDIC_Insured_Banks,POINT (-102.241773 43.9935790000001),-102.241773,43.993579
"803 Main Street, Timber Lake, South Dakota 57656",FDIC_Insured_Banks,POINT (-101.07388 45.4283780000001),-101.07388,45.428378
"420 South Pierre Street, Pierre, South Dakota 57501",FDIC_Insured_Banks,POINT (-98.6955539999999 43.2542570000001),-98.695554,43.254257
"308 South Main Street, Aberdeen, South Dakota 57401",FDIC_Insured_Banks,POINT (-97.52010199999989 45.3312690000001),-97.520102,45.331269
"124 Elk Street, Elkton, South Dakota 57026",FDIC_Insured_Banks,POINT (-96.9206019999999 44.318317),-96.920602,44.318317
"128 Main St, Arlington, South Dakota 57212",FDIC_Insured_Banks,POINT (-97.0478279299999 44.2454919500001),-97.04782793,44.24549195
"101 South Main Street, Plankinton, South Dakota 57368",FDIC_Insured_Banks,POINT (-98.48521699999991 43.714273),-98.485217,43.714273
"211 North Main Street, Estelline, South Dakota 57234",FDIC_Insured_Banks,POINT (-97.2064839999999 44.6570500000001),-97.206484,44.65705
"1204 Yellowstone Street, Fort Pierre, South Dakota 57532",FDIC_Insured_Banks,POINT (-100.382734 44.3855790000001),-100.382734,44.385579
"702 7th Street, Eureka, South Dakota 57437",FDIC_Insured_Banks,POINT (-99.6197699999999 45.769481),-99.61977,45.769481
"308 South Main Street, Aberdeen, South Dakota 57401",FDIC_Insured_Banks,POINT (-97.0521479999999 45.6631050000001),-97.052148,45.663105
"127 Public Square, Cleveland, Ohio 44114",FDIC_Insured_Banks,POINT (-121.96927 48.082339),-121.96927,48.082339
"445 S.E. Main Street, Roseburg, Oregon 97470",FDIC_Insured_Banks,POINT (-121.877517 45.6967000000001),-121.877517,45.6967
"1301 A Street, Tacoma, Washington 98402",FDIC_Insured_Banks,POINT (-122.33716 48.4698660000001),-122.33716,48.469866
"201 5th Avenue, S.W., Olympia, Washington 98501",FDIC_Insured_Banks,POINT (-122.483761 47.2065500000001),-122.483761,47.20655
"101 N. Phillips Avenue, Sioux Falls, South Dakota 57104",FDIC_Insured_Banks,POINT (-110.761244 43.4806),-110.761244,43.4806
"115 South Walnut, Kimball, Nebraska 69145",FDIC_Insured_Banks,POINT (-104.804963 41.159338),-104.804963,41.159338
"401 North 31st Street, Billings, Montana 59101",FDIC_Insured_Banks,POINT (-106.955931 44.79697),-106.955931,44.79697
"103 East Second, Pine Bluffs, Wyoming 82082",FDIC_Insured_Banks,POINT (-104.067882 41.1829680000001),-104.067882,41.182968
"285 Main Street, Lander, Wyoming 82520",FDIC_Insured_Banks,POINT (-108.731017 42.833082),-108.731017,42.833082
"809 Illinois Street, Sidney, Nebraska 69162",FDIC_Insured_Banks,POINT (-104.184432 42.0663930000001),-104.184432,42.066393
"100 North Tryon St, Charlotte, North Carolina 28202",FDIC_Insured_Banks,POINT (-74.38490999999991 40.863008),-74.38491,40.863008
"101 N. Phillips Avenue, Sioux Falls, South Dakota 57104",FDIC_Insured_Banks,POINT (-74.2262639999999 40.586441),-74.226264,40.586441
"100 North Tryon St, Charlotte, North Carolina 28202",FDIC_Insured_Banks,POINT (-74.5576639999999 40.8842780000001),-74.557664,40.884278
"100 North Tryon St, Charlotte, North Carolina 28202",FDIC_Insured_Banks,POINT (-74.2158269999999 40.6692760000001),-74.215827,40.669276
"1111 Polaris Parkway, Columbus, Ohio 43240",FDIC_Insured_Banks,POINT (-74.5800569999999 41.1203110000001),-74.580057,41.120311
"399 Route 23, Franklin, New Jersey 07416",FDIC_Insured_Banks,POINT (-74.0647179999999 40.9058920000001),-74.064718,40.905892
"55 North Main Street, Warsaw, New York 14569",FDIC_Insured_Banks,POINT (-77.4214079999999 42.4090150000001),-77.421408,42.409015
"One Steuben Square, Hornell, New York 14843",FDIC_Insured_Banks,POINT (-78.03397099999999 42.2231420000001),-78.033971,42.223142
"100 North Tryon St, Charlotte, North Carolina 28202",FDIC_Insured_Banks,POINT (-78.8734179999999 42.8887350000001),-78.873418,42.888735
"One M And T Plaza, Buffalo, New York 14203",FDIC_Insured_Banks,POINT (-78.8733459999999 42.8887230000001),-78.873346,42.888723
"90-92 Main Street, Wellsboro, Pennsylvania 16901",FDIC_Insured_Banks,POINT (-77.6055759999999 42.270224),-77.605576,42.270224
"One Chemung Canal Plaza, Elmira, New York 14902",FDIC_Insured_Banks,POINT (-76.8036739999999 42.088512),-76.803674,42.088512
"One M And T Plaza, Buffalo, New York 14203",FDIC_Insured_Banks,POINT (-76.048267 42.1039480000001),-76.048267,42.103948
"118 E. Seneca Street, Ithaca, New York 14850",FDIC_Insured_Banks,POINT (-76.4979719999999 42.4404270000001),-76.497972,42.440427
"45-49 Court Street, Canton, New York 13617",FDIC_Insured_Banks,POINT (-75.4924369999999 43.7868570000001),-75.492437,43.786857
"3263 Franklin Avenue, Millbrook, New York 12545",FDIC_Insured_Banks,POINT (-73.69557399999989 41.785109),-73.695574,41.785109
"275 Seventh Avenue, New York, New York 10001",FDIC_Insured_Banks,POINT (-73.99446499999991 40.7456720000001),-73.994465,40.745672
"60 Wall Street, New York, New York 10005",FDIC_Insured_Banks,POINT (-74.0087579999999 40.706016),-74.008758,40.706016
"1111 Polaris Parkway, Columbus, Ohio 43240",FDIC_Insured_Banks,POINT (-82.9911069999999 40.1444310000001),-82.991107,40.144431
"1111 Polaris Parkway, Columbus, Ohio 43240",FDIC_Insured_Banks,POINT (-74.0087579999999 40.706016),-74.008758,40.706016
"225 Liberty Street, New York, New York 10286",FDIC_Insured_Banks,POINT (-74.0150839999999 40.7112970000001),-74.015084,40.711297
"615 Main Avenue, Passaic, New Jersey 07055",FDIC_Insured_Banks,POINT (-74.0009279999999 40.72047),-74.000928,40.72047
"100 North Tryon St, Charlotte, North Carolina 28202",FDIC_Insured_Banks,POINT (-73.9793269999999 40.7556900000001),-73.979327,40.75569
"45-49 Court Street, Canton, New York 13617",FDIC_Insured_Banks,POINT (-75.49221299999989 44.697866),-75.492213,44.697866
"55 North Main Street, Warsaw, New York 14569",FDIC_Insured_Banks,POINT (-78.13262899999999 42.7409690000001),-78.132629,42.740969
"473 Broadway, Saratoga Springs, New York 12866",FDIC_Insured_Banks,POINT (-73.78489499999991 43.0830030000001),-73.784895,43.083003
"850 Main Street, Bridgeport, Connecticut 06604",FDIC_Insured_Banks,POINT (-73.1953849999999 40.8549080000001),-73.195385,40.854908
"1111 Polaris Parkway, Columbus, Ohio 43240",FDIC_Insured_Banks,POINT (-73.58787699999991 40.7559400000001),-73.587877,40.75594
"1111 Polaris Parkway, Columbus, Ohio 43240",FDIC_Insured_Banks,POINT (-73.7659019999999 41.0329370000001),-73.765902,41.032937
"222 Delaware Avenue, Wilmington, Delaware 19899",FDIC_Insured_Banks,POINT (-75.5501509999999 39.7467280000001),-75.550151,39.746728
"222 Delaware Avenue, Wilmington, Delaware 19899",FDIC_Insured_Banks,POINT (-75.11870999999989 39.9453960000001),-75.11871,39.945396
"222 Delaware Avenue, Wilmington, Delaware 19899",FDIC_Insured_Banks,POINT (-74.66045199999991 40.3494930000001),-74.660452,40.349493
"232 East Street, Bloomsburg, Pennsylvania 17815",FDIC_Insured_Banks,POINT (-76.45323500000001 41.0040950000001),-76.453235,41.004095
"One M And T Plaza, Buffalo, New York 14203",FDIC_Insured_Banks,POINT (-76.8815699999999 40.2599290000001),-76.88157,40.259929
"717 Main Street, Honesdale, Pennsylvania 18431",FDIC_Insured_Banks,POINT (-75.25531099999991 41.5717260000001),-75.255311,41.571726
"600 Philadelphia Street, Indiana, Pennsylvania 15701",FDIC_Insured_Banks,POINT (-78.3520479999999 40.8251240000001),-78.352048,40.825124
"77 East King Street, Shippensburg, Pennsylvania 17257",FDIC_Insured_Banks,POINT (-77.519201 40.0511270000001),-77.519201,40.051127
"101 N. Phillips Avenue, Sioux Falls, South Dakota 57104",FDIC_Insured_Banks,POINT (-75.4833409999999 40.0419330000001),-75.483341,40.041933
"101 N. Phillips Avenue, Sioux Falls, South Dakota 57104",FDIC_Insured_Banks,POINT (-75.3264349999999 40.025405),-75.326435,40.025405
"222 Delaware Avenue, Wilmington, Delaware 19899",FDIC_Insured_Banks,POINT (-75.31879599999991 40.02018),-75.318796,40.02018
"824 North Market Street, Suite 100, Wilmington, Delaware 19801",FDIC_Insured_Banks,POINT (-76.1724999999999 40.629462),-76.1725,40.629462
"One M And T Plaza, Buffalo, New York 14203",FDIC_Insured_Banks,POINT (-75.92787799999989 40.3365030000001),-75.927878,40.336503
"Fourth And Main Streets, Paris, Kentucky 40361",FDIC_Insured_Banks,POINT (-84.2499369999999 38.212271),-84.249937,38.212271
"1111 Polaris Parkway, Columbus, Ohio 43240",FDIC_Insured_Banks,POINT (-84.2945619999999 37.7474880000001),-84.294562,37.747488
"3 West Main Street, Apple Creek, Ohio 44606",FDIC_Insured_Banks,POINT (-81.8361119999999 40.7493580000001),-81.836112,40.749358
"323 Croghan Street, Fremont, Ohio 43420",FDIC_Insured_Banks,POINT (-82.8409519999999 41.277833),-82.840952,41.277833
"1885 Northwest Boulevard, Columbus, Ohio 43212",FDIC_Insured_Banks,POINT (-83.04778999999991 39.996224),-83.04779,39.996224
"222 Delaware Avenue, Wilmington, Delaware 19899",FDIC_Insured_Banks,POINT (-84.5094569999999 39.1016540000001),-84.509457,39.101654
"127 Public Square, Cleveland, Ohio 44114",FDIC_Insured_Banks,POINT (-81.6889589999999 41.5020150000001),-81.688959,41.502015
"222 Delaware Avenue, Wilmington, Delaware 19899",FDIC_Insured_Banks,POINT (-80.6937179999999 40.8867520000001),-80.693718,40.886752
"165 North Main Street, Killbuck, Ohio 44637",FDIC_Insured_Banks,POINT (-82.2606479999999 40.444033),-82.260648,40.444033
"601 Clinton Street, Defiance, Ohio 43512",FDIC_Insured_Banks,POINT (-84.3374419999999 40.843778),-84.337442,40.843778
"401 Clinton Street, Defiance, Ohio 43512",FDIC_Insured_Banks,POINT (-84.0201519999999 41.573628),-84.020152,41.573628
"38 Fountain Square Plaza, Cincinnati, Ohio 45263",FDIC_Insured_Banks,POINT (-83.3200079999999 41.38464),-83.320008,41.38464
"38 Fountain Square Plaza, Cincinnati, Ohio 45263",FDIC_Insured_Banks,POINT (-83.5415389999999 38.794518),-83.541539,38.794518
"401 Clinton Street, Defiance, Ohio 43512",FDIC_Insured_Banks,POINT (-84.0700319999999 41.6993980000001),-84.070032,41.699398
"222 Delaware Avenue, Wilmington, Delaware 19899",FDIC_Insured_Banks,POINT (-80.7242719999999 40.0957870000001),-80.724272,40.095787
"95 West 4th Street, Minster, Ohio 45865",FDIC_Insured_Banks,POINT (-84.38184199999991 40.3929440000001),-84.381842,40.392944
"222 Delaware Avenue, Wilmington, Delaware 19899",FDIC_Insured_Banks,POINT (-82.4859239999999 40.3933890000001),-82.485924,40.393389
"222 Delaware Avenue, Wilmington, Delaware 19899",FDIC_Insured_Banks,POINT (-81.7644919999999 40.8406780000001),-81.764492,40.840678
"640 East Main Street, Pomeroy, Ohio 45769",FDIC_Insured_Banks,POINT (-82.01747999999991 39.0304510000001),-82.01748,39.030451
"222 Delaware Avenue, Wilmington, Delaware 19899",FDIC_Insured_Banks,POINT (-81.72886799999991 41.051521),-81.728868,41.051521
"255 East Fifth Street, Cincinnati, Ohio 45202",FDIC_Insured_Banks,POINT (-84.3874509999999 40.543597),-84.387451,40.543597
"222 Delaware Avenue, Wilmington, Delaware 19899",FDIC_Insured_Banks,POINT (-82.6603719999999 40.881398),-82.660372,40.881398
"101 N. Phillips Avenue, Sioux Falls, South Dakota 57104",FDIC_Insured_Banks,POINT (-84.5803199999999 40.851658),-84.58032,40.851658
"127 Public Square, Cleveland, Ohio 44114",FDIC_Insured_Banks,POINT (-82.3503769999999 41.4249480000001),-82.350377,41.424948
"1111 Polaris Parkway, Columbus, Ohio 43240",FDIC_Insured_Banks,POINT (-81.9417369999999 40.7987900000001),-81.941737,40.79879
"17 South High Street, Columbus, Ohio 43216",FDIC_Insured_Banks,POINT (-80.3055109999999 40.6949440000001),-80.305511,40.694944
"127 Public Square, Cleveland, Ohio 44114",FDIC_Insured_Banks,POINT (-79.1479769999999 41.8448040000001),-79.147977,41.844804
"222 Delaware Avenue, Wilmington, Delaware 19899",FDIC_Insured_Banks,POINT (-80.3442449999999 41.0000810000001),-80.344245,41.000081
"One Bank Plaza, Wheeling, West Virginia 26003",FDIC_Insured_Banks,POINT (-80.99646299999991 39.5631320000001),-80.996463,39.563132
"One Bank Plaza, Wheeling, West Virginia 26003",FDIC_Insured_Banks,POINT (-80.7091929999999 40.07687),-80.709193,40.07687
"222 Delaware Avenue, Wilmington, Delaware 19899",FDIC_Insured_Banks,POINT (-76.3489009999999 39.5344580000001),-76.348901,39.534458
"101 N. Phillips Avenue, Sioux Falls, South Dakota 57104",FDIC_Insured_Banks,POINT (-80.24357499999989 36.095535),-80.243575,36.095535
"239 Fayetteville Street, Raleigh, North Carolina 27601",FDIC_Insured_Banks,POINT (-80.2503649999999 34.2169880000001),-80.250365,34.216988
"126 South Main Street, Blackstone, Virginia 23824",FDIC_Insured_Banks,POINT (-77.9976799999999 37.0801490000001),-77.99768,37.080149
"15960 Kings Highway, Montross, Virginia 22520",FDIC_Insured_Banks,POINT (-76.82549999999991 38.094654),-76.8255,38.094654
"303 Peachtreet Street, Northeast, Atlanta, Georgia 30308",FDIC_Insured_Banks,POINT (-77.4357159999999 37.537806),-77.435716,37.537806
"100 North Tryon St, Charlotte, North Carolina 28202",FDIC_Insured_Banks,POINT (-76.6337879999999 36.980825),-76.633788,36.980825
"200 W 2nd St, Winston Salem, North Carolina 27101",FDIC_Insured_Banks,POINT (-78.1267799999999 36.7257740000001),-78.12678,36.725774
"100 South Main Street, Blacksburg, Virginia 24060",FDIC_Insured_Banks,POINT (-81.52159999999991 37.1156950000001),-81.5216,37.115695
"11185 Main Street, Fairfax, Virginia 22030",FDIC_Insured_Banks,POINT (-81.6381029999999 38.3510240000001),-81.638103,38.351024
"200 W 2nd St, Winston Salem, North Carolina 27101",FDIC_Insured_Banks,POINT (-81.63387399999991 38.351725),-81.633874,38.351725
"3601 Maccorkle Ave., Se, Charleston, West Virginia 25304",FDIC_Insured_Banks,POINT (-80.6318849999999 37.7294540000001),-80.631885,37.729454
"211-213 Third Street, Elkins, West Virginia 26241",FDIC_Insured_Banks,POINT (-79.68055099999989 39.0980430000001),-79.680551,39.098043
"300 North Main Street, Moorefield, West Virginia 26836",FDIC_Insured_Banks,POINT (-81.7139589999999 38.3226080000001),-81.713959,38.322608
"95 East Main Street, Romney, West Virginia 26757",FDIC_Insured_Banks,POINT (-78.75735399999991 39.342247),-78.757354,39.342247
"215 Washington Street, Saint Marys, West Virginia 26170",FDIC_Insured_Banks,POINT (-81.20560499999991 39.390831),-81.205605,39.390831
"2883 Fifth Ave, Huntington, West Virginia 25702",FDIC_Insured_Banks,POINT (-81.76630899999989 38.9547920000001),-81.766309,38.954792
"101 N. Phillips Avenue, Sioux Falls, South Dakota 57104",FDIC_Insured_Banks,POINT (-86.8080469999999 33.5177540000001),-86.808047,33.517754
"620 Second Avenue North, Clanton, Alabama 35045",FDIC_Insured_Banks,POINT (-86.6301779999999 32.839544),-86.630178,32.839544
"2526 West Main Street, Dothan, Alabama 36301",FDIC_Insured_Banks,POINT (-85.14579499999989 31.8909800000001),-85.145795,31.89098
"209 Troy Street, Tupelo, Mississippi 38801",FDIC_Insured_Banks,POINT (-86.6069559999999 33.178366),-86.606956,33.178366
"1900 Fifth Avenue North, Birmingham, Alabama 35203",FDIC_Insured_Banks,POINT (-86.84084799999989 34.1699940000001),-86.840848,34.169994
"251 Prairie Avenue, Eutaw, Alabama 35462",FDIC_Insured_Banks,POINT (-87.88791499999989 32.8392950000001),-87.887915,32.839295
"101 N. Phillips Avenue, Sioux Falls, South Dakota 57104",FDIC_Insured_Banks,POINT (-87.99204399999989 34.1431470000001),-87.992044,34.143147
"101 N. Phillips Avenue, Sioux Falls, South Dakota 57104",FDIC_Insured_Banks,POINT (-87.0237589999999 32.4353540000001),-87.023759,32.435354
"248 East Capitol Street, Jackson, Mississippi 39201",FDIC_Insured_Banks,POINT (-87.02136899999989 32.4103870000001),-87.021369,32.410387
"1945 Ushwy 43, Winfield, Alabama 35594",FDIC_Insured_Banks,POINT (-87.8174549999999 33.928881),-87.817455,33.928881
"301 Broad Street, York, Alabama 36925",FDIC_Insured_Banks,POINT (-88.2975319999999 32.4870270000001),-88.297532,32.487027
"177 Highway 515 East, Blairsville, Georgia 30512",FDIC_Insured_Banks,POINT (-84.93141299999991 34.3768330000001),-84.931413,34.376833
"303 Peachtreet Street, Northeast, Atlanta, Georgia 30308",FDIC_Insured_Banks,POINT (-84.38671244999991 33.7631291200001),-84.38671245,33.76312912
"1900 Fifth Avenue North, Birmingham, Alabama 35203",FDIC_Insured_Banks,POINT (-84.5764469999999 30.905941),-84.576447,30.905941
"112 E Beech Street, Cochran, Georgia 31014",FDIC_Insured_Banks,POINT (-83.35611299999989 32.3894080000001),-83.356113,32.389408
"1111 Bay Avenue, Columbus, Georgia 31901",FDIC_Insured_Banks,POINT (-84.99592799999991 32.4667710000001),-84.995928,32.466771
"520 Gervais Street, Columbia, South Carolina 29201",FDIC_Insured_Banks,POINT (-83.4590139999999 34.2044050000001),-83.459014,34.204405
"201-209 Main Street, Dawson, Georgia 39842",FDIC_Insured_Banks,POINT (-84.4467939999999 31.7723720000001),-84.446794,31.772372
"130 Oak Street, Eastman, Georgia 31023",FDIC_Insured_Banks,POINT (-83.1783759999999 32.1975520000001),-83.178376,32.197552
"106 East Crogan Street, Lawrenceville, Georgia 30046",FDIC_Insured_Banks,POINT (-83.98646599999999 33.956417),-83.986466,33.956417
"U.S. Highway 378 And Ward Avenue, Lincolnton, Georgia 30817",FDIC_Insured_Banks,POINT (-82.46949099999991 33.7937860000001),-82.469491,33.793786
"1900 Fifth Avenue North, Birmingham, Alabama 35203",FDIC_Insured_Banks,POINT (-81.9359819999999 32.803633),-81.935982,32.803633
"101 N. Phillips Avenue, Sioux Falls, South Dakota 57104",FDIC_Insured_Banks,POINT (-83.7128789999999 33.7931350000001),-83.712879,33.793135
"36 Martin Luther King Drive, Reynolds, Georgia 31076",FDIC_Insured_Banks,POINT (-84.2601919999999 32.563271),-84.260192,32.563271
"1202 Second Street North, Soperton, Georgia 30457",FDIC_Insured_Banks,POINT (-82.5872699999999 32.3826200000001),-82.58727,32.38262
"200 W 2nd St, Winston Salem, North Carolina 27101",FDIC_Insured_Banks,POINT (-82.33264799999991 32.5953500000001),-82.332648,32.59535
"300 South Main Street, Moultrie, Georgia 31768",FDIC_Insured_Banks,POINT (-83.5108279999999 31.4527770000001),-83.510828,31.452777
"407 Main Street, Carthage, Tennessee 37030",FDIC_Insured_Banks,POINT (-85.95184499999991 36.253316),-85.951845,36.253316
"303 Peachtreet Street, Northeast, Atlanta, Georgia 30308",FDIC_Insured_Banks,POINT (-85.30945800000001 35.047311),-85.309458,35.047311
"165 Madison Avenue, Memphis, Tennessee 38101",FDIC_Insured_Banks,POINT (-82.830733 36.163395),-82.830733,36.163395
"1900 Fifth Avenue North, Birmingham, Alabama 35203",FDIC_Insured_Banks,POINT (-90.3578039999999 31.987535),-90.357804,31.987535
"211 West Third Street, Forest, Mississippi 39074",FDIC_Insured_Banks,POINT (-89.4763759999999 32.3642380000001),-89.476376,32.364238
"110 East Elm Street, Argenta, Illinois 62501",FDIC_Insured_Banks,POINT (-88.8221489999999 39.9819160000001),-88.822149,39.981916
"1700 N Alpine Rd, Rockford, Illinois 61107",FDIC_Insured_Banks,POINT (-88.8390439999999 42.254668),-88.839044,42.254668
"200 North Walnut, Byron, Illinois 61010",FDIC_Insured_Banks,POINT (-89.2576379999999 42.1267230000001),-89.257638,42.126723
"30 North Lasalle Street, Chicago, Illinois 60602",FDIC_Insured_Banks,POINT (-87.63247799999991 41.8828290000001),-87.632478,41.882829
"111 West Monroe Street, Chicago, Illinois 60603",FDIC_Insured_Banks,POINT (-87.7588329999999 42.1345450000001),-87.758833,42.134545
"1111 Polaris Parkway, Columbus, Ohio 43240",FDIC_Insured_Banks,POINT (-87.6241449999999 41.8928020000001),-87.624145,41.892802
"38 Fountain Square Plaza, Cincinnati, Ohio 45263",FDIC_Insured_Banks,POINT (-87.63454299999999 41.8880120000001),-87.634543,41.888012
"180 N Lasalle Street, Chicago, Illinois 60601",FDIC_Insured_Banks,POINT (-87.6809109999999 41.8520730000001),-87.680911,41.852073
"50 South Lasalle Street, Chicago, Illinois 60603",FDIC_Insured_Banks,POINT (-87.6324289999999 41.8810090000001),-87.632429,41.881009
"38 Fountain Square Plaza, Cincinnati, Ohio 45263",FDIC_Insured_Banks,POINT (-87.9399449999999 41.8987100000001),-87.939945,41.89871
"1111 Polaris Parkway, Columbus, Ohio 43240",FDIC_Insured_Banks,POINT (-87.6240589999999 41.898734),-87.624059,41.898734
"7940 South Harlem Avenue, Bridgeview, Illinois 60455",FDIC_Insured_Banks,POINT (-87.65946099999989 41.9685610000001),-87.659461,41.968561
"126 North Grand Ave, Cowden, Illinois 62422",FDIC_Insured_Banks,POINT (-88.8616559999999 39.2506540000001),-88.861656,39.250654
"401 North Hershey Road, Bloomington, Illinois 61702",FDIC_Insured_Banks,POINT (-89.2729079999999 40.7215600000001),-89.272908,40.72156
"425 Walnut Street, Cincinnati, Ohio 45202",FDIC_Insured_Banks,POINT (-87.71105899999991 42.0409690000001),-87.711059,42.040969
"1111 Polaris Parkway, Columbus, Ohio 43240",FDIC_Insured_Banks,POINT (-87.6813299999999 42.0470060000001),-87.68133,42.047006
"21 East Main Street, Galesburg, Illinois 61401",FDIC_Insured_Banks,POINT (-90.3702709999999 40.9475180000001),-90.370271,40.947518
"22 South Fourth Street, Geneva, Illinois 60134",FDIC_Insured_Banks,POINT (-88.3093519999999 41.8878430000001),-88.309352,41.887843
"207 North Tremont Street, Kewanee, Illinois 61443",FDIC_Insured_Banks,POINT (-89.92644799999989 41.245031),-89.926448,41.245031
"425 Walnut Street, Cincinnati, Ohio 45202",FDIC_Insured_Banks,POINT (-88.3713519999999 39.4815780000001),-88.371352,39.481578
"1000 Walnut Street, Kansas City, Missouri 64106",FDIC_Insured_Banks,POINT (-89.3712339999999 40.7903620000001),-89.371234,40.790362
"36 East Jones Street, Milford, Illinois 60953",FDIC_Insured_Banks,POINT (-87.6971629999999 40.6282890000001),-87.697163,40.628289
"101 West Main Street, Bethany, Illinois 61914",FDIC_Insured_Banks,POINT (-89.16631199999991 39.8533770000001),-89.166312,39.853377
"1111 Polaris Parkway, Columbus, Ohio 43240",FDIC_Insured_Banks,POINT (-87.80188199999991 41.8886640000001),-87.801882,41.888664
"1111 Polaris Parkway, Columbus, Ohio 43240",FDIC_Insured_Banks,POINT (-89.6479239999999 39.8010540000001),-89.647924,39.801054
"111 W Lincoln St, Iroquois, Illinois 60945",FDIC_Insured_Banks,POINT (-87.5639259999999 40.7691920000001),-87.563926,40.769192
"100 West University Avenue, Champaign, Illinois 61820",FDIC_Insured_Banks,POINT (-88.2593089999999 39.986138),-88.259309,39.986138
"900 South Progress Boulevard, Tuscola, Illinois 61953",FDIC_Insured_Banks,POINT (-88.2701279999999 39.792331),-88.270128,39.792331
"105 North Main Street, Walnut, Illinois 61376",FDIC_Insured_Banks,POINT (-89.5925749999999 41.5580120000001),-89.592575,41.558012
"401 North Hershey Road, Bloomington, Illinois 61702",FDIC_Insured_Banks,POINT (-89.4069769999999 40.702231),-89.406977,40.702231
"1111 Polaris Parkway, Columbus, Ohio 43240",FDIC_Insured_Banks,POINT (-87.7083549999999 42.0767080000001),-87.708355,42.076708
"111 West Monroe Street, Chicago, Illinois 60603",FDIC_Insured_Banks,POINT (-86.0409929999999 40.2822880000001),-86.040993,40.282288
"5 East Call Street, Algona, Iowa 50511",FDIC_Insured_Banks,POINT (-94.2373429999999 43.069847),-94.237343,43.069847
"212 West Willow Street, Cherokee, Iowa 51012",FDIC_Insured_Banks,POINT (-95.5519809999999 42.7505170000001),-95.551981,42.750517
"453 7th Street, Des Moines, Iowa 50309",FDIC_Insured_Banks,POINT (-93.62636499999989 41.5870560000001),-93.626365,41.587056
"311 5th Street, Fontanelle, Iowa 50846",FDIC_Insured_Banks,POINT (-94.5613909999999 41.28981),-94.561391,41.28981
"Avenue G And Seventh Street, Fort Madison, Iowa 52627",FDIC_Insured_Banks,POINT (-91.30981899999991 40.6309140000001),-91.309819,40.630914
"32 North Walnut Street, Glenwood, Iowa 51534",FDIC_Insured_Banks,POINT (-95.74332799999991 41.0472360000001),-95.743328,41.047236
"110 W South St, Spicer, Minnesota 56288",FDIC_Insured_Banks,POINT (-95.4365249999999 42.712269),-95.436525,42.712269
"501 2nd Street, Ida Grove, Iowa 51445",FDIC_Insured_Banks,POINT (-95.4716219999999 42.345062),-95.471622,42.345062
"1900 Fifth Avenue North, Birmingham, Alabama 35203",FDIC_Insured_Banks,POINT (-91.1908939999999 42.2381130000001),-91.190894,42.238113
"501 2nd Street, Ida Grove, Iowa 51445",FDIC_Insured_Banks,POINT (-95.8514289999999 41.922311),-95.851429,41.922311
"300 East Second Street, Muscatine, Iowa 52761",FDIC_Insured_Banks,POINT (-91.0433449999999 41.4225860000001),-91.043345,41.422586
"425 Walnut Street, Cincinnati, Ohio 45202",FDIC_Insured_Banks,POINT (-93.05477500000001 41.6988500000001),-93.054775,41.69885
"628 Main Street, Osage, Iowa 50461",FDIC_Insured_Banks,POINT (-92.8115109999999 43.2840520000001),-92.811511,43.284052
"425 Walnut Street, Cincinnati, Ohio 45202",FDIC_Insured_Banks,POINT (-92.4104039999999 41.0184040000001),-92.410404,41.018404
"Third And Main, Royal, Iowa 51357",FDIC_Insured_Banks,POINT (-95.2840769999999 43.0644710000001),-95.284077,43.064471
"1150 Jordan Creek Parkway, West Des Moines, Iowa 50266",FDIC_Insured_Banks,POINT (-95.3740419999999 40.765968),-95.374042,40.765968
"601 Lake Street, Storm Lake, Iowa 50588",FDIC_Insured_Banks,POINT (-95.2008049999999 42.6446490000001),-95.200805,42.644649
"103 S Main St, Templeton, Iowa 51463",FDIC_Insured_Banks,POINT (-94.9431349999999 41.9192810000001),-94.943135,41.919281
"222 Delaware Avenue, Wilmington, Delaware 19899",FDIC_Insured_Banks,POINT (-83.4324959999999 45.0627850000001),-83.432496,45.062785
"1111 Polaris Parkway, Columbus, Ohio 43240",FDIC_Insured_Banks,POINT (-83.7484979999999 42.2807800000001),-83.748498,42.28078
"204 East Jefferson, Blissfield, Michigan 49228",FDIC_Insured_Banks,POINT (-83.8614019999999 41.8307240000001),-83.861402,41.830724
"4222 Main Street, Brown City, Michigan 48416",FDIC_Insured_Banks,POINT (-82.9883589999999 43.212139),-82.988359,43.212139
"65 North Howard Avenue, Croswell, Michigan 48422",FDIC_Insured_Banks,POINT (-82.6207439999999 43.274072),-82.620744,43.274072
"1717 Main Street, Dallas, Texas 75201",FDIC_Insured_Banks,POINT (-96.7958169999999 32.781388),-96.795817,32.781388
"17 South High Street, Columbus, Ohio 43216",FDIC_Insured_Banks,POINT (-83.6917649999999 43.0171490000001),-83.691765,43.017149
"222 Delaware Avenue, Wilmington, Delaware 19899",FDIC_Insured_Banks,POINT (-83.7381639999999 43.3340170000001),-83.738164,43.334017
"38 Fountain Square Plaza, Cincinnati, Ohio 45263",FDIC_Insured_Banks,POINT (-85.94716099999989 43.4671470000001),-85.947161,43.467147
"17 South High Street, Columbus, Ohio 43216",FDIC_Insured_Banks,POINT (-85.9451219999999 43.467092),-85.945122,43.467092
"38 Fountain Square Plaza, Cincinnati, Ohio 45263",FDIC_Insured_Banks,POINT (-86.2298739999999 43.063656),-86.229874,43.063656
"1111 Polaris Parkway, Columbus, Ohio 43240",FDIC_Insured_Banks,POINT (-86.22898099999991 43.0633320000001),-86.228981,43.063332
"38 Fountain Square Plaza, Cincinnati, Ohio 45263",FDIC_Insured_Banks,POINT (-85.6707309999999 42.9672870000001),-85.670731,42.967287
"1717 Main Street, Dallas, Texas 75201",FDIC_Insured_Banks,POINT (-84.03937999999989 42.1496330000001),-84.03938,42.149633
"222 Delaware Avenue, Wilmington, Delaware 19899",FDIC_Insured_Banks,POINT (-86.3224179999999 44.2478120000001),-86.322418,44.247812
"119-21 West Main Street, Marcellus, Michigan 49067",FDIC_Insured_Banks,POINT (-85.8156899999999 42.0269430000001),-85.81569,42.026943
"301 North State Street, Alma, Michigan 48801",FDIC_Insured_Banks,POINT (-84.44315899999989 42.5798290000001),-84.443159,42.579829
"333 East Main Street, Midland, Michigan 48640",FDIC_Insured_Banks,POINT (-84.24325399999989 43.6115540000001),-84.243254,43.611554
"200 East Broadway, Mount Pleasant, Michigan 48858",FDIC_Insured_Banks,POINT (-84.7747449999999 43.6044640000001),-84.774745,43.604464
"222 Delaware Avenue, Wilmington, Delaware 19899",FDIC_Insured_Banks,POINT (-82.7853159999999 42.7336340000001),-82.785316,42.733634
"417 South Main Street, Brooklyn, Michigan 49230",FDIC_Insured_Banks,POINT (-84.2477839999999 42.0978690000001),-84.247784,42.097869
"38 Fountain Square Plaza, Cincinnati, Ohio 45263",FDIC_Insured_Banks,POINT (-82.4858779999999 42.8234350000001),-82.485878,42.823435
"333 East Main Street, Midland, Michigan 48640",FDIC_Insured_Banks,POINT (-86.27435199999989 42.4032270000001),-86.274352,42.403227
"109 East Division, Sparta, Michigan 49345",FDIC_Insured_Banks,POINT (-85.70750199999991 43.1607970000001),-85.707502,43.160797
"38 Fountain Square Plaza, Cincinnati, Ohio 45263",FDIC_Insured_Banks,POINT (-85.62423199999991 44.764077),-85.624232,44.764077
"17 South High Street, Columbus, Ohio 43216",FDIC_Insured_Banks,POINT (-84.2840349999999 42.6880320000001),-84.284035,42.688032
"345 West Pine Street, Platteville, Wisconsin 53818",FDIC_Insured_Banks,POINT (-90.48231199999989 42.733661),-90.482312,42.733661
"101 N. Phillips Avenue, Sioux Falls, South Dakota 57104",FDIC_Insured_Banks,POINT (-87.7106619999999 43.7530960000001),-87.710662,43.753096
"111 N. Washington Street, Green Bay, Wisconsin 54301",FDIC_Insured_Banks,POINT (-87.5016099999999 44.4574600000001),-87.50161,44.45746
"400 West Main Street, Blytheville, Arkansas 72315",FDIC_Insured_Banks,POINT (-89.9070209999999 35.9274680000001),-89.907021,35.927468
"200 West Fourth Street, Fordyce, Arkansas 71742",FDIC_Insured_Banks,POINT (-92.4141769999999 33.8132080000001),-92.414177,33.813208
"100 North Tryon St, Charlotte, North Carolina 28202",FDIC_Insured_Banks,POINT (-92.27283799999989 34.7444180000001),-92.272838,34.744418
"1900 Fifth Avenue North, Birmingham, Alabama 35203",FDIC_Insured_Banks,POINT (-93.1366419999999 35.2775790000001),-93.136642,35.277579
"75 North East Street, Fayetteville, Arkansas 72701",FDIC_Insured_Banks,POINT (-93.1349499999999 35.2783140000001),-93.13495,35.278314
"11901 Olive Boulevard, Creve Coeur, Missouri 63141",FDIC_Insured_Banks,POINT (-89.52817899999989 38.608727),-89.528179,38.608727
"11901 Olive Boulevard, Creve Coeur, Missouri 63141",FDIC_Insured_Banks,POINT (-89.8046609999999 37.927712),-89.804661,37.927712
"11901 Olive Boulevard, Creve Coeur, Missouri 63141",FDIC_Insured_Banks,POINT (-89.9848529999999 38.5674670000001),-89.984853,38.567467
"330 West Vandalia Street, Edwardsville, Illinois 62025",FDIC_Insured_Banks,POINT (-89.9588609999999 38.8109660000001),-89.958861,38.810966
"1201 Network Centre Drive, Effingham, Illinois 62401",FDIC_Insured_Banks,POINT (-88.5247149999999 39.1460210000001),-88.524715,39.146021
"300 Tower Square, Marion, Illinois 62959",FDIC_Insured_Banks,POINT (-88.4386589999999 37.8139),-88.438659,37.8139
"104 West Washington Street, Newton, Illinois 62448",FDIC_Insured_Banks,POINT (-89.4126229999999 38.8919920000001),-89.412623,38.891992
"201 East Main Street, Carmi, Illinois 62821",FDIC_Insured_Banks,POINT (-87.7625239999999 38.412337),-87.762524,38.412337
"100 West 4th Street, Hoffman, Illinois 62250",FDIC_Insured_Banks,POINT (-89.27301799999989 38.4419930000001),-89.273018,38.441993
"401 North Madison Street, Litchfield, Illinois 62056",FDIC_Insured_Banks,POINT (-89.6566269999999 39.177711),-89.656627,39.177711
"400 West Broadway, Steeleville, Illinois 62288",FDIC_Insured_Banks,POINT (-89.66170199999991 38.0069930000001),-89.661702,38.006993
"301 North Main Street, Chatham, Illinois 62629",FDIC_Insured_Banks,POINT (-90.45608299999989 39.6285590000001),-90.456083,39.628559
"1021 South Main Street, Hartford, Kentucky 42347",FDIC_Insured_Banks,POINT (-86.9000459999999 37.4447970000001),-86.900046,37.444797
"1201 South Missouri Avenue, Marceline, Missouri 64658",FDIC_Insured_Banks,POINT (-92.8470549999999 39.2265500000001),-92.847055,39.22655
"201 East Columbia Street, Farmington, Missouri 63640",FDIC_Insured_Banks,POINT (-92.6639109999999 37.6804860000001),-92.663911,37.680486
"2191 Lemay Ferry Road, Lemay, Missouri 63125",FDIC_Insured_Banks,POINT (-90.29898899999991 38.5237510000001),-90.298989,38.523751
"1000 Walnut Street, Kansas City, Missouri 64106",FDIC_Insured_Banks,POINT (-90.3399909999999 38.637613),-90.339991,38.637613
"27 East North Street, Marshall, Missouri 65340",FDIC_Insured_Banks,POINT (-93.1968889999999 39.1213720000001),-93.196889,39.121372
"425 Walnut Street, Cincinnati, Ohio 45202",FDIC_Insured_Banks,POINT (-93.2721529999999 38.710989),-93.272153,38.710989
"2191 Lemay Ferry Road, Lemay, Missouri 63125",FDIC_Insured_Banks,POINT (-90.3870209999999 38.7751870000001),-90.387021,38.775187
"12412 Powerscourt Drive, Des Peres, Missouri 63131",FDIC_Insured_Banks,POINT (-90.4502159999999 38.6066240000001),-90.450216,38.606624
"1900 Fifth Avenue North, Birmingham, Alabama 35203",FDIC_Insured_Banks,POINT (-90.3469989999999 38.6530200000001),-90.346999,38.65302
"2301 Market Street, Saint Louis, Missouri 63103",FDIC_Insured_Banks,POINT (-90.2137249999999 38.630818),-90.213725,38.630818
"100 North Tryon St, Charlotte, North Carolina 28202",FDIC_Insured_Banks,POINT (-90.2230169999999 38.6048430000001),-90.223017,38.604843
"6900 Clayton Avenue, St. Louis, Missouri 63139",FDIC_Insured_Banks,POINT (-90.30428599999991 38.632436),-90.304286,38.632436
"1000 Walnut Street, Kansas City, Missouri 64106",FDIC_Insured_Banks,POINT (-90.2471799999999 38.628544),-90.24718,38.628544
"222 Delaware Avenue, Wilmington, Delaware 19899",FDIC_Insured_Banks,POINT (-90.2457269999999 38.578871),-90.245727,38.578871
"100 North Tryon St, Charlotte, North Carolina 28202",FDIC_Insured_Banks,POINT (-90.2000059999999 38.6505930000001),-90.200006,38.650593
"111 West Monroe Street, Chicago, Illinois 60603",FDIC_Insured_Banks,POINT (-90.2678649999999 38.611878),-90.267865,38.611878
"1000 Walnut Street, Kansas City, Missouri 64106",FDIC_Insured_Banks,POINT (-90.2424369999999 38.6014750000001),-90.242437,38.601475
"425 Walnut Street, Cincinnati, Ohio 45202",FDIC_Insured_Banks,POINT (-90.5149009999999 38.7843090000001),-90.514901,38.784309
"113 East Newton Street, Versailles, Missouri 65084",FDIC_Insured_Banks,POINT (-92.8413509999999 38.431629),-92.841351,38.431629
"425 Walnut Street, Cincinnati, Ohio 45202",FDIC_Insured_Banks,POINT (-91.5051899999999 38.9777000000001),-91.50519,38.9777
"100 North Tryon St, Charlotte, North Carolina 28202",FDIC_Insured_Banks,POINT (-90.3592889999999 38.593038),-90.359289,38.593038
"323 East Third Street, Forest, Mississippi 39074",FDIC_Insured_Banks,POINT (-90.64948199999991 33.4581170000001),-90.649482,33.458117
"430 North Lincoln Road, Escanaba, Michigan 49829",FDIC_Insured_Banks,POINT (-87.07968199999991 45.7497290000001),-87.079682,45.749729
"155 East Cloverland Drive, Ironwood, Michigan 49938",FDIC_Insured_Banks,POINT (-89.2815769999999 46.533709),-89.281577,46.533709
"104 South Tenth Street, Gladstone, Michigan 49837",FDIC_Insured_Banks,POINT (-87.0217829999999 45.846101),-87.021783,45.846101
"327 North 17th Avenue, Wausau, Wisconsin 54401",FDIC_Insured_Banks,POINT (-88.0669079999999 45.8175130000001),-88.066908,45.817513
"233 South Stephenson Avenue, Iron Mountain, Michigan 49801",FDIC_Insured_Banks,POINT (-87.6126079999999 45.1333740000001),-87.612608,45.133374
"511 Bingham Avenue, Sault Sainte Marie, Michigan 49783",FDIC_Insured_Banks,POINT (-84.3458449999999 46.4962070000001),-84.345845,46.496207
"17 South High Street, Columbus, Ohio 43216",FDIC_Insured_Banks,POINT (-84.34781199999991 46.4973760000001),-84.347812,46.497376
"18 3rd Street, S. E., Chatfield, Minnesota 55923",FDIC_Insured_Banks,POINT (-92.1877999999999 43.844993),-92.1878,43.844993
"116 Central Street West, Lonsdale, Minnesota 55046",FDIC_Insured_Banks,POINT (-96.4337779999999 45.460109),-96.433778,45.460109
"100 4th Avenue S.E., Plainview, Minnesota 55964",FDIC_Insured_Banks,POINT (-92.1651039999999 44.1612270000001),-92.165104,44.161227
"225 East Main Street, Lewiston, Minnesota 55952",FDIC_Insured_Banks,POINT (-92.2682989999999 43.7078890000001),-92.268299,43.707889
"101 N. Phillips Avenue, Sioux Falls, South Dakota 57104",FDIC_Insured_Banks,POINT (-112.954027 46.129507),-112.954027,46.129507
"401 North 31st Street, Billings, Montana 59101",FDIC_Insured_Banks,POINT (-108.512478 45.7834220000001),-108.512478,45.783422
"101 N. Phillips Avenue, Sioux Falls, South Dakota 57104",FDIC_Insured_Banks,POINT (-111.033872 45.6793460000001),-111.033872,45.679346
"425 Walnut Street, Cincinnati, Ohio 45202",FDIC_Insured_Banks,POINT (-112.535531 46.0126940000001),-112.535531,46.012694
"401 North 31st Street, Billings, Montana 59101",FDIC_Insured_Banks,POINT (-111.262341 47.494176),-111.262341,47.494176
"101 N. Phillips Avenue, Sioux Falls, South Dakota 57104",FDIC_Insured_Banks,POINT (-112.037645 46.590135),-112.037645,46.590135
"12 First Avenue, Laurel, Montana 59044",FDIC_Insured_Banks,POINT (-109.252546 45.6368870000001),-109.252546,45.636887
"700 Main Street, Miles City, Montana 59301",FDIC_Insured_Banks,POINT (-105.07049372 47.6455232600001),-105.07049372,47.64552326
"700 Main Street, Miles City, Montana 59301",FDIC_Insured_Banks,POINT (-105.31310346 46.7940650200001),-105.31310346,46.79406502
"400 Broadway, Townsend, Montana 59644",FDIC_Insured_Banks,POINT (-111.517213 46.3205320000001),-111.517213,46.320532
"700 Main Street, Miles City, Montana 59301",FDIC_Insured_Banks,POINT (-108.161551 45.9619400000001),-108.161551,45.96194
"1004 21st Avenue, Rock Valley, Iowa 51247",FDIC_Insured_Banks,POINT (-96.6310039999999 43.0214110000001),-96.631004,43.021411
"120 East Main Street, Wessington Springs, South Dakota 57382",FDIC_Insured_Banks,POINT (-98.5705249999999 44.0794050000001),-98.570525,44.079405
"128 Main St, Arlington, South Dakota 57212",FDIC_Insured_Banks,POINT (-97.1339209999999 44.3640020000001),-97.133921,44.364002
"420 South Pierre Street, Pierre, South Dakota 57501",FDIC_Insured_Banks,POINT (-101.904518 43.9639010000001),-101.904518,43.963901
"700 State Street, Belle Fourche, South Dakota 57717",FDIC_Insured_Banks,POINT (-103.974642 45.5503630000001),-103.974642,45.550363
"745 Main Street, Burke, South Dakota 57523",FDIC_Insured_Banks,POINT (-99.2922439999999 43.183046),-99.292244,43.183046
"103 E Oak Street, Philip, South Dakota 57567",FDIC_Insured_Banks,POINT (-102.03852 45.022271),-102.03852,45.022271
"100 South Phillips Avenue, Sioux Falls, South Dakota 57101",FDIC_Insured_Banks,POINT (-96.5944319999999 44.0494770000001),-96.594432,44.049477
"305 S. Main St, Freeman, South Dakota 57029",FDIC_Insured_Banks,POINT (-97.4373759999999 43.3524170000001),-97.437376,43.352417
"307 E Hustan Ave, Fort Pierre, South Dakota 57532",FDIC_Insured_Banks,POINT (-98.21417700000001 44.3628220000001),-98.214177,44.362822
"120 East Main Street, Wessington Springs, South Dakota 57382",FDIC_Insured_Banks,POINT (-98.98871699999989 44.516216),-98.988717,44.516216
"1620 Dodge Street, Omaha, Nebraska 68197",FDIC_Insured_Banks,POINT (-98.02405399999989 43.7106150000001),-98.024054,43.710615
"101 N. Phillips Avenue, Sioux Falls, South Dakota 57104",FDIC_Insured_Banks,POINT (-99.8569099999999 43.374108),-99.85691,43.374108
"1620 Dodge Street, Omaha, Nebraska 68197",FDIC_Insured_Banks,POINT (-98.2773649999999 44.0538920000001),-98.277365,44.053892
"212 West Prospect Street, Durand, Wisconsin 54736",FDIC_Insured_Banks,POINT (-91.48886999999991 45.102108),-91.48887,45.102108
"100 4th Avenue S.E., Plainview, Minnesota 55964",FDIC_Insured_Banks,POINT (-92.0334409999999 45.0438730000001),-92.033441,45.043873
"N 1555 770th Street, Hager City, Wisconsin 54014",FDIC_Insured_Banks,POINT (-92.1701919999999 45.058677),-92.170192,45.058677
"180 Montgomery Street, San Francisco, California 94104",FDIC_Insured_Banks,POINT (-108.070784 38.7415800000001),-108.070784,38.74158
"301 Colorado Avenue, La Junta, Colorado 81050",FDIC_Insured_Banks,POINT (-103.543073 37.9858720000001),-103.543073,37.985872
"6740 Antioch Road, Merriam, Kansas 66204",FDIC_Insured_Banks,POINT (-94.6864769999999 39.0062100000001),-94.686477,39.00621
"1400 16th Street, Denver, Colorado 80202",FDIC_Insured_Banks,POINT (-100.922283 37.0455930000001),-100.922283,37.045593
"701 Poyntz Avenue, Manhattan, Kansas 66502",FDIC_Insured_Banks,POINT (-95.8256359999999 38.6343210000001),-95.825636,38.634321
"222 South Main Street, Pratt, Kansas 67124",FDIC_Insured_Banks,POINT (-98.7394569999999 37.644141),-98.739457,37.644141
"401 Charmany Drive, Madison, Wisconsin 53719",FDIC_Insured_Banks,POINT (-94.6270279999999 38.9243890000001),-94.627028,38.924389
"600 Kansas Avenue, Topeka, Kansas 66603",FDIC_Insured_Banks,POINT (-95.67347100000001 39.0512170000001),-95.673471,39.051217
"127 South Summit Street, Arkansas City, Kansas 67005",FDIC_Insured_Banks,POINT (-96.9972459999999 37.2405310000001),-96.997246,37.240531
"101 North Main Street, Rock Port, Missouri 64482",FDIC_Insured_Banks,POINT (-95.3739749999999 40.1919250000001),-95.373975,40.191925
"201 Main Street, Beemer, Nebraska 68716",FDIC_Insured_Banks,POINT (-96.5727439099999 42.01498717),-96.57274391,42.01498717
"110 E 9th Street, Wood River, Nebraska 68883",FDIC_Insured_Banks,POINT (-97.5965919999999 41.1130230000001),-97.596592,41.113023
"164 East 5th Street, Wahoo, Nebraska 68066",FDIC_Insured_Banks,POINT (-96.6189209999999 41.2100480000001),-96.618921,41.210048
"500 West Broadway, Farmington, New Mexico 87401",FDIC_Insured_Banks,POINT (-108.211143 36.7281180000001),-108.211143,36.728118
"203 Oklahoma Avenue, Okarche, Oklahoma 73762",FDIC_Insured_Banks,POINT (-97.9754479999999 35.7258370000001),-97.975448,35.725837
"180 Montgomery Street, San Francisco, California 94104",FDIC_Insured_Banks,POINT (-110.964391 41.2666800000001),-110.964391,41.26668
"695 Parkway Drive, Mountain View, Wyoming 82939",FDIC_Insured_Banks,POINT (-110.334945 41.27581),-110.334945,41.27581
"24 North Sumner Avenue, Newcastle, Wyoming 82701",FDIC_Insured_Banks,POINT (-104.203698 43.8559100000001),-104.203698,43.85591
"123 North 2nd Street, Sundance, Wyoming 82729",FDIC_Insured_Banks,POINT (-104.381128 44.40515),-104.381128,44.40515
"101 N. Phillips Avenue, Sioux Falls, South Dakota 57104",FDIC_Insured_Banks,POINT (-104.952832 42.054399),-104.952832,42.054399
"180 Montgomery Street, San Francisco, California 94104",FDIC_Insured_Banks,POINT (-104.953259 42.0536500000001),-104.953259,42.05365
"2000 Main Street, Torrington, Wyoming 82240",FDIC_Insured_Banks,POINT (-107.960112 44.016802),-107.960112,44.016802
"101 N. Phillips Avenue, Sioux Falls, South Dakota 57104",FDIC_Insured_Banks,POINT (-107.758518 32.267345),-107.758518,32.267345
"100 South Main Street, Moulton, Texas 77975",FDIC_Insured_Banks,POINT (-96.6774029999999 31.167291),-96.677403,31.167291
"2201 Civic Circle, Amarillo, Texas 79101",FDIC_Insured_Banks,POINT (-100.887557 34.9388390000001),-100.887557,34.938839
"1200 Avenue F, Del Rio, Texas 78840",FDIC_Insured_Banks,POINT (-100.90234 29.3754270000001),-100.90234,29.375427
"Interstate Hwy 45 And Jefferson St., Palmer, Texas 75152",FDIC_Insured_Banks,POINT (-96.6585679999999 32.5339980000001),-96.658568,32.533998
"100 North Tryon St, Charlotte, North Carolina 28202",FDIC_Insured_Banks,POINT (-96.46792599999991 32.756401),-96.467926,32.756401
"18-20 South Main Street, Temple, Texas 76501",FDIC_Insured_Banks,POINT (-97.7480509999999 31.4349130000001),-97.748051,31.434913
"400 Pine Street, Abilene, Texas 79601",FDIC_Insured_Banks,POINT (-95.5604639999999 30.72418),-95.560464,30.72418
"108 West Sandstone Street, Llano, Texas 78643",FDIC_Insured_Banks,POINT (-98.6768109999999 30.7491840000001),-98.676811,30.749184
"5701 82nd Street, Lubbock, Texas 79424",FDIC_Insured_Banks,POINT (-100.712192 32.4110600000001),-100.712192,32.41106
"101 N. Phillips Avenue, Sioux Falls, South Dakota 57104",FDIC_Insured_Banks,POINT (-95.9128229999999 30.949616),-95.912823,30.949616
"201 North Washington Street, Seymour, Texas 76380",FDIC_Insured_Banks,POINT (-100.822244 34.0141860000001),-100.822244,34.014186
"1301 North Mechanic Street, El Campo, Texas 77437",FDIC_Insured_Banks,POINT (-97.8215689999999 28.089367),-97.821569,28.089367
"100 West Arkansas Street, Mount Pleasant, Texas 75455",FDIC_Insured_Banks,POINT (-94.9690219999999 33.1550980000001),-94.969022,33.155098
"215 East Main Street, Nacogdoches, Texas 75961",FDIC_Insured_Banks,POINT (-94.65502599999991 31.6032190000001),-94.655026,31.603219
"901 Main Street, Ralls, Texas 79357",FDIC_Insured_Banks,POINT (-101.384275 33.6802210000001),-101.384275,33.680221
"1111 Polaris Parkway, Columbus, Ohio 43240",FDIC_Insured_Banks,POINT (-96.73395599999991 32.9509840000001),-96.733956,32.950984
"117 Cypress St, Roscoe, Texas 79545",FDIC_Insured_Banks,POINT (-100.538421 32.4449470000001),-100.538421,32.444947
"200 East Commerce Street, Jacksonville, Texas 75766",FDIC_Insured_Banks,POINT (-95.1504849999999 31.7947950000001),-95.150485,31.794795
"15 20th Street South, Birmingham, Alabama 35233",FDIC_Insured_Banks,POINT (-94.1768289999999 30.3509340000001),-94.176829,30.350934
"1200 San Bernardo Avenue, Laredo, Texas 78040",FDIC_Insured_Banks,POINT (-97.5129619999999 28.0366870000001),-97.512962,28.036687
"1 Ne Court Street, Spearman, Texas 79081",FDIC_Insured_Banks,POINT (-101.192005 36.1987700000001),-101.192005,36.19877
"1000 Eighth Street, Wellington, Texas 79095",FDIC_Insured_Banks,POINT (-100.212979 34.8562100000001),-100.212979,34.85621
"200 East Jackson Street, El Campo, Texas 77437",FDIC_Insured_Banks,POINT (-96.09998399999991 29.3107670000001),-96.099984,29.310767
"1301 North Mechanic Street, El Campo, Texas 77437",FDIC_Insured_Banks,POINT (-96.10136899999991 29.3101940000001),-96.101369,29.310194
"302 Pine Avenue, Long Beach, California 90802",FDIC_Insured_Banks,POINT (-118.192338 33.7706700000001),-118.192338,33.77067
"400 California Street, San Francisco, California 94104",FDIC_Insured_Banks,POINT (-118.257052 34.0524010000001),-118.257052,34.052401
"33 Bannock Street, Malad City, Idaho 83252",FDIC_Insured_Banks,POINT (-112.246356 42.1863840000001),-112.246356,42.186384
"101 North Main Street, Logan, Utah 84321",FDIC_Insured_Banks,POINT (-111.587106 39.3598800000001),-111.587106,39.35988
"10 South Main Street, Gunnison, Utah 84634",FDIC_Insured_Banks,POINT (-111.818347 39.1549410000001),-111.818347,39.154941
"1 S Main Street, Salt Lake City, Utah 84133",FDIC_Insured_Banks,POINT (-110.811216 39.5990140000001),-110.811216,39.599014
"1 S Main Street, Salt Lake City, Utah 84133",FDIC_Insured_Banks,POINT (-111.862561 38.9575130000001),-111.862561,38.957513
"1 S Main Street, Salt Lake City, Utah 84133",FDIC_Insured_Banks,POINT (-109.528871 40.4556930000001),-109.528871,40.455693
"117 Aplets Way, Cashmere, Washington 98815",FDIC_Insured_Banks,POINT (-120.470071 47.5221700000001),-120.470071,47.52217
"425 Walnut Street, Cincinnati, Ohio 45202",FDIC_Insured_Banks,POINT (-122.335017 47.610082),-122.335017,47.610082
"717 W Sprague Avenue, Spokane, Washington 99201",FDIC_Insured_Banks,POINT (-117.423161 47.6571920000001),-117.423161,47.657192
"200 East Main Street, Magnolia, Arkansas 71753",FDIC_Insured_Banks,POINT (-93.23909999999999 33.2670980000001),-93.2391,33.267098
"425 Walnut Street, Cincinnati, Ohio 45202",FDIC_Insured_Banks,POINT (-94.3535739999999 35.434807),-94.353574,35.434807
"636 Ash Flat Drive, Ash Flat, Arkansas 72513",FDIC_Insured_Banks,POINT (-91.6078459999999 36.2260170000001),-91.607846,36.226017
"1900 Fifth Avenue North, Birmingham, Alabama 35203",FDIC_Insured_Banks,POINT (-90.7862689999999 35.2262220000001),-90.786269,35.226222
"71 West Center St, Greenwood, Arkansas 72936",FDIC_Insured_Banks,POINT (-94.2575329999999 35.2124830000001),-94.257533,35.212483
"314 North Spring Street, Searcy, Arkansas 72143",FDIC_Insured_Banks,POINT (-91.6396569999999 35.2710220000001),-91.639657,35.271022
"1325 Harrison Street, Batesville, Arkansas 72501",FDIC_Insured_Banks,POINT (-90.3305549999999 35.6125170000001),-90.330555,35.612517
"301 Shoppingway Boulevard, West Memphis, Arkansas 72301",FDIC_Insured_Banks,POINT (-90.1908929999999 35.1657470000001),-90.190893,35.165747
"1108 Fifth Avenue, San Rafael, California 94901",FDIC_Insured_Banks,POINT (-122.712425 38.4374270000001),-122.712425,38.437427
"425 Walnut Street, Cincinnati, Ohio 45202",FDIC_Insured_Banks,POINT (-121.499463 38.578358),-121.499463,38.578358
"11901 Olive Boulevard, Creve Coeur, Missouri 63141",FDIC_Insured_Banks,POINT (-121.265356 38.744154),-121.265356,38.744154
"121 West Pine Street, Lodi, California 95240",FDIC_Insured_Banks,POINT (-121.274027 38.1342630000001),-121.274027,38.134263
"303 Peachtreet Street, Northeast, Atlanta, Georgia 30308",FDIC_Insured_Banks,POINT (-80.0696819999999 26.4616330000001),-80.069682,26.461633
"101 N. Phillips Avenue, Sioux Falls, South Dakota 57104",FDIC_Insured_Banks,POINT (-81.37692199999989 28.5551610000001),-81.376922,28.555161
"100 North Tryon St, Charlotte, North Carolina 28202",FDIC_Insured_Banks,POINT (-81.5106509999999 28.6731490000001),-81.510651,28.673149
"100 North Tryon St, Charlotte, North Carolina 28202",FDIC_Insured_Banks,POINT (-80.27753299999991 25.822838),-80.277533,25.822838
"127 Public Square, Cleveland, Ohio 44114",FDIC_Insured_Banks,POINT (-116.923486 44.024906),-116.923486,44.024906
"609 North 291 Highway, Lees Summit, Missouri 64086",FDIC_Insured_Banks,POINT (-94.64167499999991 38.9166030000001),-94.641675,38.916603
"701 Minnesota Avenue, Kansas City, Kansas 66101",FDIC_Insured_Banks,POINT (-94.8774559999999 38.5716430000001),-94.877456,38.571643
"101 South Main Street, Mcpherson, Kansas 67460",FDIC_Insured_Banks,POINT (-97.6668769999999 38.3690010000001),-97.666877,38.369001
"609 North 291 Highway, Lees Summit, Missouri 64086",FDIC_Insured_Banks,POINT (-94.92746799999991 38.8110320000001),-94.927468,38.811032
"123 North Cedar Street, Stockton, Kansas 67669",FDIC_Insured_Banks,POINT (-100.002282 39.6103780000001),-100.002282,39.610378
"1 Hancock Plaza, Gulfport, Mississippi 39501",FDIC_Insured_Banks,POINT (-90.7200739999999 29.597834),-90.720074,29.597834
"400 East Thomas Street, Hammond, Louisiana 70401",FDIC_Insured_Banks,POINT (-90.8452929999999 30.8885628200001),-90.845293,30.88856282
"814 Washington Street, Natchitoches, Louisiana 71457",FDIC_Insured_Banks,POINT (-93.0860439999999 31.7639140000001),-93.086044,31.763914
"32460 Bowie Street, White Castle, Louisiana 70788",FDIC_Insured_Banks,POINT (-91.1464409999999 30.1707910000001),-91.146441,30.170791
"1900 Fifth Avenue North, Birmingham, Alabama 35203",FDIC_Insured_Banks,POINT (-90.69597999999991 30.042985),-90.69598,30.042985
"57910 Main Street, Plaquemine, Louisiana 70764",FDIC_Insured_Banks,POINT (-91.23588099999991 30.2912860000001),-91.235881,30.291286
"814 Washington Street, Natchitoches, Louisiana 71457",FDIC_Insured_Banks,POINT (-93.2843609999999 32.328697),-93.284361,32.328697
"10926 Plank Road, Clinton, Louisiana 70722",FDIC_Insured_Banks,POINT (-91.01392899999991 30.8615490000001),-91.013929,30.861549
"372 Saint Peter Street, Saint Paul, Minnesota 55102",FDIC_Insured_Banks,POINT (-93.5800989999999 45.5683040000001),-93.580099,45.568304
"201 West Main Street, Belle Plaine, Minnesota 56011",FDIC_Insured_Banks,POINT (-93.7703919999999 44.6229920000001),-93.770392,44.622992
"815 East Depue, Olivia, Minnesota 56277",FDIC_Insured_Banks,POINT (-95.2120759999999 44.7859070000001),-95.212076,44.785907
"100 S Main St, Sanborn, Minnesota 56083",FDIC_Insured_Banks,POINT (-95.1286939999999 44.2095390000001),-95.128694,44.209539
"101 N. Phillips Avenue, Sioux Falls, South Dakota 57104",FDIC_Insured_Banks,POINT (-94.16462299999991 45.5887250000001),-94.164623,45.588725
"513 Main Street, Ormsby, Minnesota 56162",FDIC_Insured_Banks,POINT (-94.69894099999991 43.848123),-94.698941,43.848123
"600 Minnesota Ave. W, Walker, Minnesota 56484",FDIC_Insured_Banks,POINT (-94.2450079999999 46.3622000000001),-94.245008,46.3622
"12790 First Avenue North, Lindstrom, Minnesota 55045",FDIC_Insured_Banks,POINT (-92.8476119999999 45.3903260000001),-92.847612,45.390326
"230 West Main Street, Arlington, Minnesota 55307",FDIC_Insured_Banks,POINT (-94.0793619999999 44.6072040000001),-94.079362,44.607204
"101 N. Phillips Avenue, Sioux Falls, South Dakota 57104",FDIC_Insured_Banks,POINT (-92.9846559999999 45.276686),-92.984656,45.276686
"116 Central Street West, Lonsdale, Minnesota 55046",FDIC_Insured_Banks,POINT (-93.1910529999999 44.430031),-93.191053,44.430031
"75 North Main Street, Kimball, Minnesota 55353",FDIC_Insured_Banks,POINT (-94.7806129999999 45.1371270000001),-94.780613,45.137127
"425 Walnut Street, Cincinnati, Ohio 45202",FDIC_Insured_Banks,POINT (-93.2277629999999 44.973573),-93.227763,44.973573
"300 South Washington Street, Redwood Falls, Minnesota 56283",FDIC_Insured_Banks,POINT (-95.7243659999999 44.9455710000001),-95.724366,44.945571
"116 Central Street West, Lonsdale, Minnesota 55046",FDIC_Insured_Banks,POINT (-93.4295819999999 44.4806070000001),-93.429582,44.480607
"703 3rd Street, Nicollet, Minnesota 56074",FDIC_Insured_Banks,POINT (-94.21959799999991 44.5531020000001),-94.219598,44.553102
"2010 Minnesota Ave, Benson, Minnesota 56215",FDIC_Insured_Banks,POINT (-95.6103879999999 45.31075),-95.610388,45.31075
"55 First Street Northwest, Clara City, Minnesota 56222",FDIC_Insured_Banks,POINT (-95.36844499999989 44.9555080000001),-95.368445,44.955508
"55 First Street Northwest, Clara City, Minnesota 56222",FDIC_Insured_Banks,POINT (-94.8800429999999 44.9442000000001),-94.880043,44.9442
"425 Walnut Street, Cincinnati, Ohio 45202",FDIC_Insured_Banks,POINT (-95.2644249999999 44.2319760000001),-95.264425,44.231976
"510 Main Street, Sandstone, Minnesota 55072",FDIC_Insured_Banks,POINT (-95.0554419999999 46.9221420000001),-95.055442,46.922142
"101 N. Phillips Avenue, Sioux Falls, South Dakota 57104",FDIC_Insured_Banks,POINT (-94.3145149999999 46.6024570000001),-94.314515,46.602457
"11 North Central Ave., Kensington, Minnesota 56343",FDIC_Insured_Banks,POINT (-95.69492099999989 45.7787390000001),-95.694921,45.778739
"300 South Washington Street, Redwood Falls, Minnesota 56283",FDIC_Insured_Banks,POINT (-95.6186959999999 44.2339390000001),-95.618696,44.233939
"318 N 1st Street, Darwin, Minnesota 55324",FDIC_Insured_Banks,POINT (-94.4102959999999 45.096843),-94.410296,45.096843
"301 Chestnut Street, Chaska, Minnesota 55318",FDIC_Insured_Banks,POINT (-93.6008459999999 44.7864870000001),-93.600846,44.786487
"1200 East First Street, Park Rapids, Minnesota 56470",FDIC_Insured_Banks,POINT (-95.03660099999991 46.9217420000001),-95.036601,46.921742
"122 Main Street, Hinckley, Minnesota 55037",FDIC_Insured_Banks,POINT (-92.94239499999991 46.0156820000001),-92.942395,46.015682
"18255 Highway 45 North, Weston, Missouri 64098",FDIC_Insured_Banks,POINT (-94.8985599999999 39.4222960000001),-94.89856,39.422296
"St Hwy 67 & Sycamore St, Greenville, Missouri 63944",FDIC_Insured_Banks,POINT (-92.1016259999999 37.121763),-92.101626,37.121763
"7800 East Orchard Road Suite 200, Greenwood Village, Colorado 80111",FDIC_Insured_Banks,POINT (-94.87288699999991 40.349181),-94.872887,40.349181
"901 S Business Hwy 61, Bowling Green, Missouri 63334",FDIC_Insured_Banks,POINT (-91.2059019999999 39.3476640000001),-91.205902,39.347664
"1513 North Missouri Street, Macon, Missouri 63552",FDIC_Insured_Banks,POINT (-91.7346719999999 39.6543830000001),-91.734672,39.654383
"720 East Broadway Street, Columbia, Missouri 65201",FDIC_Insured_Banks,POINT (-92.2805859999999 39.2347080000001),-92.280586,39.234708
"425 Walnut Street, Cincinnati, Ohio 45202",FDIC_Insured_Banks,POINT (-89.5809219999999 36.8843610000001),-89.580922,36.884361
"1000 Walnut Street, Kansas City, Missouri 64106",FDIC_Insured_Banks,POINT (-90.3401429999999 38.650383),-90.340143,38.650383
"101 South Main Street, Charleston, Missouri 63834",FDIC_Insured_Banks,POINT (-89.3501009999999 36.9232720000001),-89.350101,36.923272
"2050 Bluff Street, Fulton, Missouri 65251",FDIC_Insured_Banks,POINT (-91.94375699999991 38.8699700000001),-91.943757,38.86997
"1100 Branch Street, Platte City, Missouri 64079",FDIC_Insured_Banks,POINT (-94.8303709999999 39.9415880000001),-94.830371,39.941588
"555 South 19th Street, Blair, Nebraska 68008",FDIC_Insured_Banks,POINT (-96.34867199999989 41.4525760000001),-96.348672,41.452576
"423 Grand Avenue, Ravenna, Nebraska 68869",FDIC_Insured_Banks,POINT (-98.9126709999999 41.026554),-98.912671,41.026554
"14 La Barre, Gibbon, Nebraska 68840",FDIC_Insured_Banks,POINT (-98.8455219999999 40.7488390000001),-98.845522,40.748839
"295 Center Ave., Ashton, Nebraska 68817",FDIC_Insured_Banks,POINT (-98.79396800000001 41.2481050000001),-98.793968,41.248105
"379 Main Street, Unadilla, Nebraska 68454",FDIC_Insured_Banks,POINT (-96.27234299999991 40.6814370000001),-96.272343,40.681437
"3331 N 204th Street, Elkhorn, Nebraska 68022",FDIC_Insured_Banks,POINT (-96.2343309999999 41.2885250000001),-96.234331,41.288525
"101 N. Phillips Avenue, Sioux Falls, South Dakota 57104",FDIC_Insured_Banks,POINT (-99.0820819999999 40.6966140000001),-99.082082,40.696614
"101 N. Phillips Avenue, Sioux Falls, South Dakota 57104",FDIC_Insured_Banks,POINT (-96.6537669999999 40.8356810000001),-96.653767,40.835681
"100 North Tryon St, Charlotte, North Carolina 28202",FDIC_Insured_Banks,POINT (-72.6591369999999 40.9356040000001),-72.659137,40.935604
"One M And T Plaza, Buffalo, New York 14203",FDIC_Insured_Banks,POINT (-78.18834799999991 43.0683780000001),-78.188348,43.068378
"One M And T Plaza, Buffalo, New York 14203",FDIC_Insured_Banks,POINT (-78.3887239999999 43.3210980000001),-78.388724,43.321098
"12 South Main Street, Holland, New York 14080",FDIC_Insured_Banks,POINT (-78.5414259999999 42.640854),-78.541426,42.640854
"728 Broad Street, Chattanooga, Tennessee 37402",FDIC_Insured_Banks,POINT (-84.17925199999991 36.3319880000001),-84.179252,36.331988
"104 Main Street, Bells, Tennessee 38006",FDIC_Insured_Banks,POINT (-89.0856569999999 35.709233),-89.085657,35.709233
"209 Troy Street, Tupelo, Mississippi 38801",FDIC_Insured_Banks,POINT (-89.08713999999991 35.7107270000001),-89.08714,35.710727
"165 Madison Avenue, Memphis, Tennessee 38101",FDIC_Insured_Banks,POINT (-86.4617139999999 36.3817660000001),-86.461714,36.381766
"501 Main Street, Pine Bluff, Arkansas 71611",FDIC_Insured_Banks,POINT (-84.2952269999999 35.3634210000001),-84.295227,35.363421
"816 South Garden Street, Columbia, Tennessee 38401",FDIC_Insured_Banks,POINT (-86.7767419999999 35.450902),-86.776742,35.450902
"1203 Hillsboro Boulevard, Manchester, Tennessee 37355",FDIC_Insured_Banks,POINT (-86.07553299999999 35.471573),-86.075533,35.471573
"611 East College St, Dickson, Tennessee 37055",FDIC_Insured_Banks,POINT (-87.7964549999999 36.083423),-87.796455,36.083423
"501 Main Street, Pine Bluff, Arkansas 71611",FDIC_Insured_Banks,POINT (-89.0579399999999 36.423187),-89.05794,36.423187
"110 South Main Street, Dyer, Tennessee 38330",FDIC_Insured_Banks,POINT (-88.9938209999999 36.0666650000001),-88.993821,36.066665
"400 Highway 52 Bypass West, Lafayette, Tennessee 37083",FDIC_Insured_Banks,POINT (-85.9522089999999 36.2501490000001),-85.952209,36.250149
"2324 Highway 64 East, Frankewing, Tennessee 38459",FDIC_Insured_Banks,POINT (-86.8490619999999 35.19291),-86.849062,35.19291
"1900 Fifth Avenue North, Birmingham, Alabama 35203",FDIC_Insured_Banks,POINT (-86.7121629999999 36.322388),-86.712163,36.322388
"816 South Garden Street, Columbia, Tennessee 38401",FDIC_Insured_Banks,POINT (-87.0356949999999 35.6142050000001),-87.035695,35.614205
"425 Walnut Street, Cincinnati, Ohio 45202",FDIC_Insured_Banks,POINT (-83.1857949999999 35.9676240000001),-83.185795,35.967624
"101 N. Phillips Avenue, Sioux Falls, South Dakota 57104",FDIC_Insured_Banks,POINT (-99.50663900000001 27.5063900000001),-99.506639,27.50639
"731 W. Leona, Dilley, Texas 78017",FDIC_Insured_Banks,POINT (-99.17873999999991 28.6691270000001),-99.17874,28.669127
"623 W. 38th Street, Austin, Texas 78705",FDIC_Insured_Banks,POINT (-97.65722699999991 31.9232590000001),-97.657227,31.923259
"5999 Delaware Street, Beaumont, Texas 77706",FDIC_Insured_Banks,POINT (-95.0699849999999 29.9166170000001),-95.069985,29.916617
"101 N. Phillips Avenue, Sioux Falls, South Dakota 57104",FDIC_Insured_Banks,POINT (-97.45113599999991 29.5191160000001),-97.451136,29.519116
"1000 North Oak Street, Pearsall, Texas 78061",FDIC_Insured_Banks,POINT (-99.0929229999999 28.8994410000001),-99.092923,28.899441
"127 Public Square, Cleveland, Ohio 44114",FDIC_Insured_Banks,POINT (-122.20414554 47.0981769100001),-122.20414554,47.09817691
"200 North Adams Street, Green Bay, Wisconsin 54301",FDIC_Insured_Banks,POINT (-87.90835299999991 43.0386770000001),-87.908353,43.038677
"620 Main Street, La Crosse, Wisconsin 54601",FDIC_Insured_Banks,POINT (-91.2471409999999 43.8116120000001),-91.247141,43.811612
"200 North Adams Street, Green Bay, Wisconsin 54301",FDIC_Insured_Banks,POINT (-89.5268259999999 43.3141600000001),-89.526826,43.31416
"1111 Polaris Parkway, Columbus, Ohio 43240",FDIC_Insured_Banks,POINT (-89.0683189999999 42.8346570000001),-89.068319,42.834657
"84 N. Bridge Street, Markesan, Wisconsin 53946",FDIC_Insured_Banks,POINT (-88.9875339999999 43.70788),-88.987534,43.70788
"1 Main Street, Evansville, Indiana 47708",FDIC_Insured_Banks,POINT (-90.9377369999999 44.9600840000001),-90.937737,44.960084
"49 Commons Loop, Kalispell, Montana 59901",FDIC_Insured_Banks,POINT (-111.033732 45.679292),-111.033732,45.679292
"One Mississippi Plaza, Tupelo, Mississippi 38804",FDIC_Insured_Banks,POINT (-91.7465889999999 34.783509),-91.746589,34.783509
"Second And Jefferson Streets, De Witt, Arkansas 72042",FDIC_Insured_Banks,POINT (-91.3376109999999 34.2931840000001),-91.337611,34.293184
"528 East Merriman Avenue, Wynne, Arkansas 72396",FDIC_Insured_Banks,POINT (-91.1999149999999 35.2572680000001),-91.199915,35.257268
"319 East Main Street, Murfreesboro, Arkansas 71958",FDIC_Insured_Banks,POINT (-93.6884509999999 34.062189),-93.688451,34.062189
"601 Main Street, Arkadelphia, Arkansas 71923",FDIC_Insured_Banks,POINT (-93.05373299999989 34.119533),-93.053733,34.119533
"One Mississippi Plaza, Tupelo, Mississippi 38804",FDIC_Insured_Banks,POINT (-91.9048819999999 36.0590980000001),-91.904882,36.059098
"301 East Miner Avenue, Stockton, California 95202",FDIC_Insured_Banks,POINT (-121.287334 37.9562780000001),-121.287334,37.956278
"405 Fifth Street, Ames, Iowa 50010",FDIC_Insured_Banks,POINT (-93.6160919999999 42.025878),-93.616092,42.025878
"200 North 10th Street, Centerville, Iowa 52544",FDIC_Insured_Banks,POINT (-92.87646599999989 40.7336320000001),-92.876466,40.733632
"102 North Main Street, Elkader, Iowa 52043",FDIC_Insured_Banks,POINT (-91.4044699999999 42.8546620000001),-91.40447,42.854662
"235 Sixth Avenue, South, Clinton, Iowa 52732",FDIC_Insured_Banks,POINT (-90.3157039999999 42.0453240000001),-90.315704,42.045324
"301 Iowa Avenue, Muscatine, Iowa 52761",FDIC_Insured_Banks,POINT (-91.0468189999999 41.422492),-91.046819,41.422492
"508 Court Street, Harlan, Iowa 51537",FDIC_Insured_Banks,POINT (-95.3166309999999 41.6577080000001),-95.316631,41.657708
"110 W South St, Spicer, Minnesota 56288",FDIC_Insured_Banks,POINT (-95.30417899999991 42.6733990000001),-95.304179,42.673399
"402 Merrill Street, Bussey, Iowa 50044",FDIC_Insured_Banks,POINT (-92.8866249999999 41.2053510000001),-92.886625,41.205351
"114 East Jackson Street, Clinton, Kentucky 42031",FDIC_Insured_Banks,POINT (-89.08941399999991 36.9647830000001),-89.089414,36.964783
"265 Old Springfield Road, Lebanon, Kentucky 40033",FDIC_Insured_Banks,POINT (-85.25084099999989 37.5906590000001),-85.250841,37.590659
"23 West Main Street, Taylorsville, Kentucky 40071",FDIC_Insured_Banks,POINT (-85.3452359999999 38.0310240000001),-85.345236,38.031024
"7185 Columbia Gateway Drive, Columbia, Maryland 21046",FDIC_Insured_Banks,POINT (-77.65333099999989 39.5088270000001),-77.653331,39.508827
"824 North Market Street, Suite 100, Wilmington, Delaware 19801",FDIC_Insured_Banks,POINT (-71.2286659999999 42.4481250000001),-71.228666,42.448125
"833 South Van Dyke, Bad Axe, Michigan 48413",FDIC_Insured_Banks,POINT (-83.3832669999999 43.498878),-83.383267,43.498878
"109 East Division, Sparta, Michigan 49345",FDIC_Insured_Banks,POINT (-85.7653169999999 43.2195720000001),-85.765317,43.219572
"101 North Main Street, Ann Arbor, Michigan 48104",FDIC_Insured_Banks,POINT (-83.7484749999999 42.2812070000001),-83.748475,42.281207
"310 Leonard Street Nw, Grand Rapids, Michigan 49504",FDIC_Insured_Banks,POINT (-84.7766929999999 43.6043760000001),-84.776693,43.604376
"222 Delaware Avenue, Wilmington, Delaware 19899",FDIC_Insured_Banks,POINT (-83.7484749999999 42.2812070000001),-83.748475,42.281207
"245 East Main Street, Blooming Prairie, Minnesota 55917",FDIC_Insured_Banks,POINT (-93.0530169999999 43.8666400000001),-93.053017,43.86664
"106 W Main St, Brownsdale, Minnesota 55918",FDIC_Insured_Banks,POINT (-92.8695059999999 43.7408760000001),-92.869506,43.740876
"519 Main Street East, Trimont, Minnesota 56176",FDIC_Insured_Banks,POINT (-94.79485199999991 43.9585630000001),-94.794852,43.958563
"101 East Main Street, Sleepy Eye, Minnesota 56085",FDIC_Insured_Banks,POINT (-95.60093999999989 45.313384),-95.60094,45.313384
"735 11th Street East, Glencoe, Minnesota 55336",FDIC_Insured_Banks,POINT (-94.3520709999999 44.7327100000001),-94.352071,44.73271
"1025 Paul Bunyan Drive, N.W., Bemidji, Minnesota 56601",FDIC_Insured_Banks,POINT (-94.89522599999989 47.4915770000001),-94.895226,47.491577
"101 N. Phillips Avenue, Sioux Falls, South Dakota 57104",FDIC_Insured_Banks,POINT (-93.6011139999999 44.787428),-93.601114,44.787428
"630 Main Street, Elk River, Minnesota 55330",FDIC_Insured_Banks,POINT (-93.5657539999999 45.302936),-93.565754,45.302936
"110 W South St, Spicer, Minnesota 56288",FDIC_Insured_Banks,POINT (-95.23959599999991 45.0168580000001),-95.239596,45.016858
"26741 Felton, Wyoming, Minnesota 55092",FDIC_Insured_Banks,POINT (-92.99723299999989 45.3361990000001),-92.997233,45.336199
"428 Central Avenue, Faribault, Minnesota 55021",FDIC_Insured_Banks,POINT (-93.2684389999999 44.295668),-93.268439,44.295668
